{"type": "FeatureCollection", "generator": "overpass-turbo", "copyright": "The data included in this document is from www.openstreetmap.org. The data is made available under ODbL.", "timestamp": "2026-06-23T04:48:30Z", "features": [{"type": "Feature", "properties": {"@id": "node/30518283", "internet_access": "no", "name": "Vasai Road", "name:hi": "\u0935\u0938\u0908 \u0930\u094b\u0921", "name:ja": "\u30f4\u30a1\u30b5\u30a4\u30fc", "name:mr": "\u0935\u0938\u0908 \u0930\u094b\u0921", "network": "Mumbai Suburban Railway", "network:wikidata": "Q3273422", "operator": "WR", "public_transport": "station", "railway": "station", "ref": "BSR", "train": "yes", "wikidata": "Q7916309", "wikipedia": "en:Vasai Road railway station"}, "geometry": {"type": "Point", "coordinates": [72.8320245, 19.3826676]}, "id": "node/30518283"}, {"type": "Feature", "properties": {"@id": "node/30518292", "internet_access": "no", "name": "Naigaon", "name:hi": "\u0928\u093e\u092f\u0917\u093e\u0935", "name:mr": "\u0928\u093e\u092f\u0917\u093e\u0935", "network": "Mumbai Suburban Railway", "network:wikidata": "Q3273422", "operator": "WR", "public_transport": "station", "railway": "station", "ref": "NIG", "train": "yes", "wikidata": "Q6959544"}, "geometry": {"type": "Point", "coordinates": [72.8465229, 19.3510925]}, "id": "node/30518292"}, {"type": "Feature", "properties": {"@id": "node/30518297", "internet_access": "wlan", "name": "Bhayandar", "name:hi": "\u092d\u093e\u092f\u0902\u0926\u0930", "name:mr": "\u092d\u093e\u0908\u0902\u0926\u0930", "network": "Mumbai Suburban Railway", "network:wikidata": "Q3273422", "operator": "WR", "public_transport": "station", "railway": "station", "ref": "BYR", "train": "yes", "wikidata": "Q4901614", "wikipedia": "en:Bhayandar railway station"}, "geometry": {"type": "Point", "coordinates": [72.8526988, 19.3101847]}, "id": "node/30518297"}, {"type": "Feature", "properties": {"@id": "node/30518361", "internet_access": "no", "name": "Kharbhav", "network": "IR", "operator": "CR", "public_transport": "station", "railway": "station", "ref": "KHBV", "train": "yes", "wikidata": "Q6400596", "wikipedia": "en:Kharbao railway station"}, "geometry": {"type": "Point", "coordinates": [72.9844677, 19.298321]}, "id": "node/30518361"}, {"type": "Feature", "properties": {"@id": "node/30519796", "internet_access": "no", "name": "Ranjangaon Road", "network": "IR", "operator": "CR", "public_transport": "station", "railway": "station", "ref": "RNJD", "train": "yes", "wikidata": "Q24948806", "wikipedia": "en:Ranjangaon Road railway station"}, "geometry": {"type": "Point", "coordinates": [74.6067124, 18.8781663]}, "id": "node/30519796"}, {"type": "Feature", "properties": {"@id": "node/30520541", "ele": "27.33", "internet_access": "no", "name": "Vapi", "name:hi": "\u0935\u093e\u092a\u0940", "network": "IR", "operator": "WR", "public_transport": "station", "railway": "station", "ref": "VAPI", "train": "yes", "wikidata": "Q16902535", "wikipedia": "en:Vapi railway station"}, "geometry": {"type": "Point", "coordinates": [72.9084376, 20.3735482]}, "id": "node/30520541"}, {"type": "Feature", "properties": {"@id": "node/30520640", "internet_access": "no", "name": "Palghar", "name:hi": "\u092a\u093e\u0932\u0918\u0930", "name:mr": "\u092a\u093e\u0932\u0918\u0930", "network": "Mumbai Suburban Railway", "network:wikidata": "Q3273422", "operator": "WR", "public_transport": "station", "railway": "station", "ref": "PLG", "train": "yes", "wikidata": "Q7127480", "wikipedia": "en:Palghar railway station"}, "geometry": {"type": "Point", "coordinates": [72.7718888, 19.6978882]}, "id": "node/30520640"}, {"type": "Feature", "properties": {"@id": "node/213017960", "internet_access": "no", "name": "Bhivandi Road", "network": "IR", "operator": "CR", "public_transport": "station", "railway": "station", "ref": "BIRD", "train": "yes", "wikidata": "Q4901854", "wikipedia": "en:Bhiwandi Road railway station"}, "geometry": {"type": "Point", "coordinates": [73.0463121, 19.2688735]}, "id": "node/213017960"}, {"type": "Feature", "properties": {"@id": "node/213030669", "internet_access": "no", "name": "Dahisar", "name:hi": "\u0926\u0939\u0940\u0938\u0930", "name:mr": "\u0926\u0939\u093f\u0938\u0930", "network": "Mumbai Suburban Railway", "network:wikidata": "Q3273422", "operator": "WR", "public_transport": "station", "railway": "station", "ref": "DIC", "train": "yes", "wikidata": "Q5208848", "wikipedia": "en:Dahisar railway station"}, "geometry": {"type": "Point", "coordinates": [72.8596302, 19.2493572]}, "id": "node/213030669"}, {"type": "Feature", "properties": {"@id": "node/213030714", "internet_access": "no", "name": "Santa Cruz", "name:hi": "\u0938\u093e\u0902\u0924\u093e\u0915\u094d\u0930\u0941\u091c\u093c", "name:mr": "\u0938\u093e\u0902\u0924\u093e\u0915\u094d\u0930\u0942\u091d", "network": "Mumbai Suburban Railway", "network:wikidata": "Q3273422", "operator": "WR", "public_transport": "station", "railway": "station", "ref": "STC", "train": "yes", "wikidata": "Q7420001", "wikipedia": "en:Santacruz railway station"}, "geometry": {"type": "Point", "coordinates": [72.8417565, 19.0815223]}, "id": "node/213030714"}, {"type": "Feature", "properties": {"@id": "node/246397026", "internet_access": "wlan", "name": "Bangalore Cantonment", "name:kn": "\u0cac\u0cc6\u0c82\u0c97\u0cb3\u0cc2\u0cb0\u0cc1 (\u0c95\u0c82\u0c9f\u0cca\u0ca8\u0ccd\u0cae\u0cc6\u0c82\u0c9f\u0ccd)", "name:ml": "\u0d2c\u0d46\u0d02\u0d17\u0d33\u0d42\u0d30\u0d41 \u0d15\u0d28\u0d4d\u0d31\u0d4b\u0d7a\u0d2e\u0d46\u0d28\u0d4d\u0d31\u0d4d", "network": "IR", "operator": "SWR", "railway": "station", "ref": "BNC", "wheelchair": "limited", "wikidata": "Q17049564", "wikipedia": "en:Bangalore Cantonment railway station"}, "geometry": {"type": "Point", "coordinates": [77.5980003, 12.9936865]}, "id": "node/246397026"}, {"type": "Feature", "properties": {"@id": "node/246582717", "alt_name:ar": "\u062b\u064a\u0646", "ele": "7.10", "internet_access": "wlan", "name": "Thane", "name:ar": "\u062a\u0627\u0646\u064a", "name:en": "Thane", "name:fa": "\u062a\u0627\u0646\u0647", "name:hi": "\u0920\u093e\u0923\u0947", "name:ml": "\u0d24\u0d3e\u0d28\u0d46", "name:mr": "\u0920\u093e\u0923\u0947", "name:pnb": "\u062a\u06c1\u0627\u0646\u06c1", "name:ps": "\u062a\u0627\u0646\u06cc", "name:ur": "\u062a\u06be\u0627\u0646\u06d2", "network": "IR", "operator": "CR", "public_transport": "station", "railway": "station", "ref": "TNA", "start_date": "1853-04-18", "train": "yes", "wikidata": "Q7710247", "wikipedia": "en:Thane railway station"}, "geometry": {"type": "Point", "coordinates": [72.9757664, 19.186483]}, "id": "node/246582717"}, {"type": "Feature", "properties": {"@id": "node/248467412", "internet_access": "no", "name": "Chennai Chetpet", "name:ml": "\u0d1a\u0d47\u0d24\u0d4d\u0d24\u0d41\u0d2a\u0d4d\u0d2a\u0d1f\u0d4d\u0d1f\u0d4d", "name:ta": "\u0b9a\u0bc7\u0ba4\u0bcd\u0ba4\u0bc1\u0baa\u0bcd\u0baa\u0b9f\u0bcd\u0b9f\u0bc1", "network": "IR", "operator": "Southern Railway", "public_transport": "station", "railway": "station", "ref": "MSC", "wikidata": "Q5094188"}, "geometry": {"type": "Point", "coordinates": [80.242421, 13.0743424]}, "id": "node/248467412"}, {"type": "Feature", "properties": {"@id": "node/248543525", "internet_access": "no", "name": "Bisanattam", "name:kn": "\u0cac\u0cbf\u0cb8\u0ca8\u0c9f\u0ccd\u0c9f\u0c82", "network": "IR", "operator": "SWR", "public_transport": "station", "railway": "station", "ref": "BSM", "wikidata": "Q63369899"}, "geometry": {"type": "Point", "coordinates": [78.2498583, 12.8422451]}, "id": "node/248543525"}, {"type": "Feature", "properties": {"@id": "node/248543645", "internet_access": "no", "name": "Kuppam", "name:kn": "\u0c95\u0cc1\u0caa\u0ccd\u0caa\u0c82", "name:ta": "\u0b95\u0bc1\u0baa\u0bcd\u0baa\u0bae\u0bcd", "network": "IR", "operator": "SWR", "platforms": "2", "public_transport": "station", "railway": "station", "ref": "KPN", "train": "yes", "wikidata": "Q63369901"}, "geometry": {"type": "Point", "coordinates": [78.3403626, 12.74728]}, "id": "node/248543645"}, {"type": "Feature", "properties": {"@id": "node/248543699", "internet_access": "no", "name": "Mulanur", "name:kn": "\u0cae\u0cc1\u0cb2\u0ca8\u0cc2\u0cb0\u0cc1", "network": "IR", "operator": "SWR", "public_transport": "station", "railway": "station", "ref": "MAR", "wikidata": "Q63369902"}, "geometry": {"type": "Point", "coordinates": [78.4067546, 12.662548]}, "id": "node/248543699"}, {"type": "Feature", "properties": {"@id": "node/248543770", "internet_access": "no", "name": "Patchur", "network": "IR", "operator": "SWR", "public_transport": "station", "railway": "station", "ref": "PU", "wikidata": "Q63369903"}, "geometry": {"type": "Point", "coordinates": [78.4697329, 12.5865309]}, "id": "node/248543770"}, {"type": "Feature", "properties": {"@id": "node/248545108", "internet_access": "no", "name": "Pattaravakkam", "name:ml": "\u0d2a\u0d1f\u0d4d\u0d1f\u0d30\u0d35\u0d3e\u0d15\u0d4d\u0d15\u0d02", "name:ta": "\u0baa\u0b9f\u0bcd\u0b9f\u0bb0\u0bb5\u0bbe\u0b95\u0bcd\u0b95\u0bae\u0bcd", "network": "IR", "operator": "SR", "railway": "station", "ref": "PVM", "wikidata": "Q7148328", "wikipedia": "en:Pattaravakkam railway station"}, "geometry": {"type": "Point", "coordinates": [80.1663975, 13.1143904]}, "id": "node/248545108"}, {"type": "Feature", "properties": {"@id": "node/252584694", "IR:zone": "ECR:DHN", "name": "Gujhandi", "name:hi": "\u0917\u091d\u0902\u0921\u0940", "network": "IR", "operator": "ECR", "railway": "station", "ref": "GJD", "wikidata": "Q31295685"}, "geometry": {"type": "Point", "coordinates": [85.463683, 24.498121]}, "id": "node/252584694"}, {"type": "Feature", "properties": {"@id": "node/252584703", "name": "Kalipahari", "network": "IR", "operator": "ER", "public_transport": "station", "railway": "station", "ref": "KPK", "source": "indiarailinfo.com", "wikidata": "Q59912460"}, "geometry": {"type": "Point", "coordinates": [87.0162555, 23.6648496]}, "id": "node/252584703"}, {"type": "Feature", "properties": {"@id": "node/252584717", "IR:div": "HWH", "IR:stn_cat": "SG-3", "IR:zone": "ER", "name": "Dankuni", "name:hi": "\u0921\u093e\u0902\u0915\u0941\u0928\u0940", "network": "IR", "operator": "ER", "public_transport": "station", "railway": "station", "ref": "DKAE", "wikidata": "Q15212753", "wikipedia": "en:Dankuni Junction railway station"}, "geometry": {"type": "Point", "coordinates": [88.2907626, 22.6779609]}, "id": "node/252584717"}, {"type": "Feature", "properties": {"@id": "node/252584722", "addr:city": "Kolkata", "air_conditioning": "yes", "internet_access": "yes", "internet_access:fee": "no", "is_in": "Kolkata,West Bengal,India", "is_in:city": "Kolkata", "is_in:country": "India", "is_in:country_code": "IN", "is_in:state": "West Bengal", "name": "Sealdah", "name:bn": "\u09b6\u09bf\u09af\u09bc\u09be\u09b2\u09a6\u09b9", "name:en": "Sealdah", "name:hi": "\u0938\u093f\u092f\u093e\u0932\u0926\u093e\u0939", "network": "IR", "operator": "ER", "owner": "Indian Railways", "public_transport": "station", "railway": "station", "ref": "SDAH", "train": "yes", "wheelchair": "yes", "wikidata": "Q3347406", "wikipedia": "en:Sealdah railway station"}, "geometry": {"type": "Point", "coordinates": [88.3711047, 22.5679661]}, "id": "node/252584722"}, {"type": "Feature", "properties": {"@id": "node/253454039", "internet_access": "no", "name": "Bengaluru East", "name:kn": "\u0cac\u0cc6\u0c82\u0c97\u0cb3\u0cc2\u0cb0\u0cc1 \u0caa\u0cc2\u0cb0\u0ccd\u0cb5", "name:ml": "\u0d2c\u0d46\u0d02\u0d17\u0d33\u0d42\u0d30\u0d41 \u0d15\u0d3f\u0d34\u0d15\u0d4d\u0d15\u0d4d", "name:ta": "\u0baa\u0bc6\u0b99\u0bcd\u0b95\u0bb3\u0bc2\u0bb0\u0bc1 \u0b95\u0bbf\u0bb4\u0b95\u0bcd\u0b95\u0bc1", "network": "IR", "operator": "SWR", "public_transport": "station", "railway": "station", "ref": "BNCE", "start_date": "1906", "wheelchair": "yes", "wikidata": "Q23091326", "wikipedia": "en:Bangalore East railway station"}, "geometry": {"type": "Point", "coordinates": [77.6183453, 13.0011462]}, "id": "node/253454039"}, {"type": "Feature", "properties": {"@id": "node/256777901", "internet_access": "no", "name": "Kanchipuram", "name:ja": "\u30ab\u30fc\u30f3\u30c1\u30fc\u30d7\u30e9\u30e0", "name:ta": "\u0b95\u0bbe\u0b9e\u0bcd\u0b9a\u0bbf\u0baa\u0bc1\u0bb0\u0bae\u0bcd", "network": "IR", "operator": "SR", "public_transport": "station", "railway": "station", "ref": "CJ", "wikidata": "Q15233410", "wikipedia": "en:Kanchipuram railway station"}, "geometry": {"type": "Point", "coordinates": [79.705073, 12.8483107]}, "id": "node/256777901"}, {"type": "Feature", "properties": {"@id": "node/261716087", "internet_access": "no", "name": "Walajabad", "network": "IR", "operator": "SR", "public_transport": "station", "railway": "station", "ref": "WJ", "wikidata": "Q63357286"}, "geometry": {"type": "Point", "coordinates": [79.8185833, 12.7968265]}, "id": "node/261716087"}, {"type": "Feature", "properties": {"@id": "node/261716103", "internet_access": "no", "name": "Kanchipuram East", "name:ta": "\u0b95\u0bbe\u0b9e\u0bcd\u0b9a\u0bbf\u0baa\u0bc1\u0bb0\u0bae\u0bcd \u0b95\u0bbf\u0bb4\u0b95\u0bcd\u0b95\u0bc1", "network": "IR", "operator": "SR", "public_transport": "station", "railway": "station", "ref": "CJE", "wikidata": "Q63356221"}, "geometry": {"type": "Point", "coordinates": [79.7121979, 12.8408612]}, "id": "node/261716103"}, {"type": "Feature", "properties": {"@id": "node/262308384", "internet_access": "no", "name": "Pattabiram Military Siding", "network": "IR", "operator": "SR", "public_transport": "station", "railway": "station", "ref": "PTMS", "wikidata": "Q63369351"}, "geometry": {"type": "Point", "coordinates": [80.0601177, 13.1373759]}, "id": "node/262308384"}, {"type": "Feature", "properties": {"@id": "node/267158149", "air_conditioning": "no", "internet_access": "wlan", "internet_access:fee": "no", "internet_access:ssid": "Rail Wire", "name": "Tirumalpur", "name:ta": "\u0ba4\u0bbf\u0bb0\u0bc1\u0bae\u0bbe\u0bb2\u0bcd\u0baa\u0bc2\u0bb0\u0bcd", "network": "IR", "operator": "SR", "public_transport": "station", "railway": "station", "ref": "TMLP", "wikidata": "Q63356220"}, "geometry": {"type": "Point", "coordinates": [79.6737627, 12.9565668]}, "id": "node/267158149"}, {"type": "Feature", "properties": {"@id": "node/269201529", "alt_name": "Calicut", "internet_access": "wlan", "name": "Kozhikode", "name:ja": "\u30b3\u30fc\u30b8\u30b3\u30fc\u30c9", "name:ml": "\u0d15\u0d4b\u0d34\u0d3f\u0d15\u0d4d\u0d15\u0d4b\u0d1f\u0d4d", "network": "IR", "operator": "SR", "public_transport": "station", "railway": "station", "ref": "CLT", "train": "yes", "wikidata": "Q6435240", "wikipedia": "en:Kozhikode railway station"}, "geometry": {"type": "Point", "coordinates": [75.7803858, 11.2459092]}, "id": "node/269201529"}, {"type": "Feature", "properties": {"@id": "node/276561422", "name": "Ambivli", "name:en": "Ambivli", "name:hi": "\u0906\u092e\u094d\u092c\u0940\u0935\u0932\u0940", "name:mr": "\u0906\u0902\u092c\u093f\u0935\u0932\u0940", "network": "IR", "operator": "CR", "public_transport": "station", "railway": "station", "ref": "ABY", "start_date": "1963-12-26", "train": "yes", "wikidata": "Q4741518", "wikipedia": "en:Ambivli railway station"}, "geometry": {"type": "Point", "coordinates": [73.1722459, 19.2682913]}, "id": "node/276561422"}, {"type": "Feature", "properties": {"@id": "node/276561622", "internet_access": "no", "name": "Titwala", "name:en": "Titwala", "name:hi": "\u091f\u093f\u091f\u0935\u093e\u0932\u093e", "name:mr": "\u091f\u093f\u091f\u0935\u093e\u0933\u093e", "network": "IR", "operator": "CR", "public_transport": "station", "railway": "station", "ref": "TLA", "start_date": "1856-11-01", "train": "yes", "wikidata": "Q7810360"}, "geometry": {"type": "Point", "coordinates": [73.2030656, 19.2963827]}, "id": "node/276561622"}, {"type": "Feature", "properties": {"@id": "node/276561755", "internet_access": "no", "name": "Khadavli", "name:en": "Khadavli", "name:hi": "\u0916\u0921\u0935\u0932\u0940", "name:mr": "\u0916\u0921\u093e\u0935\u0932\u0940", "network": "IR", "operator": "CR", "public_transport": "station", "railway": "station", "ref": "KDV", "train": "yes", "wikidata": "Q6398850", "wikipedia": "en:Khadavli railway station"}, "geometry": {"type": "Point", "coordinates": [73.2190375, 19.356724]}, "id": "node/276561755"}, {"type": "Feature", "properties": {"@id": "node/276562459", "internet_access": "no", "name": "Vithalwadi", "name:en": "Vithalwadi", "name:hi": "\u0935\u093f\u0920\u094d\u0920\u0932\u0935\u093e\u0921\u0940", "name:mr": "\u0935\u093f\u0920\u094d\u0920\u0932\u0935\u093e\u0921\u0940", "network": "IR", "operator": "CR", "public_transport": "station", "railway": "station", "ref": "VLDI", "start_date": "1948-11-01", "train": "yes", "wikidata": "Q7937069", "wikipedia": "en:Vithalwadi railway station"}, "geometry": {"type": "Point", "coordinates": [73.1491076, 19.2284195]}, "id": "node/276562459"}, {"type": "Feature", "properties": {"@id": "node/276562803", "addr:postcode": "421501", "alt_name": "Ambernath", "alt_name:en": "Ambernath", "alt_name:hi": "\u0905\u0902\u092c\u0930\u0928\u093e\u0925", "ele": "23.14", "internet_access": "no", "name": "Ambarnath", "name:en": "Ambarnath", "name:hi": "\u0905\u092e\u094d\u092c\u0930\u0928\u093e\u0925", "name:mr": "\u0905\u0902\u092c\u0930\u0928\u093e\u0925", "name:pa": "\u0a05\u0a70\u0a2c\u0a30\u0a28\u0a3e\u0a25", "network": "IR", "operator": "CR", "public_transport": "station", "railway": "station", "ref": "ABH", "train": "yes", "wikidata": "Q4741032"}, "geometry": {"type": "Point", "coordinates": [73.1846877, 19.2100605]}, "id": "node/276562803"}, {"type": "Feature", "properties": {"@id": "node/276563224", "ele": "21.34", "internet_access": "no", "name": "Badlapur", "name:en": "Badlapur", "name:hi": "\u092c\u0926\u0932\u093e\u092a\u0941\u0930", "name:mr": "\u092c\u0926\u0932\u093e\u092a\u0941\u0930", "network": "IR", "official_name:hi": "\u092c\u0926\u0932\u093e\u092a\u0942\u0930", "official_name:mr": "\u092c\u0926\u0932\u093e\u092a\u0942\u0930", "operator": "CR", "public_transport": "station", "railway": "station", "ref": "BUD", "start_date": "1856-05-12", "train": "yes", "wikidata": "Q4841008", "wikipedia": "en:Badlapur railway station"}, "geometry": {"type": "Point", "coordinates": [73.2389064, 19.1666237]}, "id": "node/276563224"}, {"type": "Feature", "properties": {"@id": "node/276569986", "internet_access": "no", "name": "Lonavala", "name:hi": "\u0932\u094b\u0928\u093e\u0935\u0932\u093e", "name:ja": "\u30ed\u30fc\u30ca\u30fc\u30f4\u30a1\u30e9\u30fc", "name:mr": "\u0932\u094b\u0923\u093e\u0935\u0932\u093e", "network": "IR", "operator": "CR", "public_transport": "station", "railway": "station", "ref": "LNL", "train": "yes", "wikidata": "Q6669650", "wikipedia": "en:Lonavala railway station"}, "geometry": {"type": "Point", "coordinates": [73.4069436, 18.7503694]}, "id": "node/276569986"}, {"type": "Feature", "properties": {"@id": "node/279318169", "internet_access": "no", "name": "Wellington", "name:ml": "\u0d35\u0d46\u0d32\u0d4d\u0d32\u0d3f\u0d02\u0d17\u0d4d\u0d1f\u0d7a", "name:ta": "\u0bb5\u0bc6\u0bb2\u0bbf\u0b99\u0bcd\u0b9f\u0ba9\u0bcd", "network": "IR", "operator": "SR", "railway": "station", "ref": "WEL", "wikidata": "Q18378005", "wikipedia": "en:Wellington railway station (Tamil Nadu)"}, "geometry": {"type": "Point", "coordinates": [76.7861039, 11.3560782]}, "id": "node/279318169"}, {"type": "Feature", "properties": {"@id": "node/279318170", "internet_access": "no", "name": "Aruvankadu", "name:ml": "\u0d05\u0d30\u0d41\u0d35\u0d19\u0d4d\u0d15\u0d3e\u0d1f\u0d4d", "name:ta": "\u0b85\u0bb0\u0bc1\u0bb5\u0b99\u0bcd\u0b95\u0bbe\u0b9f\u0bc1", "network": "IR", "operator": "SR", "public_transport": "station", "railway": "station", "ref": "AVK", "wikidata": "Q18109736"}, "geometry": {"type": "Point", "coordinates": [76.769611, 11.3595344]}, "id": "node/279318170"}, {"type": "Feature", "properties": {"@id": "node/279318171", "addr:city": "coimbatore", "addr:housenumber": "ketti valley", "addr:postcode": "643215", "addr:street": "Ketti Valley Road", "internet_access": "yes", "name": "Ketti", "name:ml": "\u0d15\u0d47\u0d24\u0d4d\u0d24\u0d3f", "name:ta": "\u0b95\u0bc7\u0ba4\u0bcd\u0ba4\u0bbf", "network": "IR", "operator": "SR", "public_transport": "station", "railway": "station", "ref": "KXT", "wikidata": "Q18126751", "wikipedia": "en:Ketti railway station"}, "geometry": {"type": "Point", "coordinates": [76.7376133, 11.3817911]}, "id": "node/279318171"}, {"type": "Feature", "properties": {"@id": "node/279318172", "internet_access": "wlan", "name": "Udhagamandalam", "name:en": "Udhagamandalam", "name:ja": "\u30a6\u30fc\u30bf\u30ab\u30de\u30f3\u30c9", "name:kn": "\u0c89\u0ca6\u0c97\u0cae\u0c82\u0ca1\u0cb2\u0c82", "name:ml": "\u0d09\u0d26\u0d17\u0d2e\u0d23\u0d4d\u0d21\u0d32\u0d02", "name:ta": "\u0b89\u0ba4\u0b95\u0bae\u0ba3\u0bcd\u0b9f\u0bb2\u0bae\u0bcd", "network": "IR", "operator": "SR", "public_transport": "station", "railway": "station", "ref": "UAM", "wikidata": "Q7095466"}, "geometry": {"type": "Point", "coordinates": [76.6963387, 11.4051694]}, "id": "node/279318172"}, {"type": "Feature", "properties": {"@id": "node/279318254", "internet_access": "no", "name": "Hill Grove", "name:ml": "\u0d39\u0d3f\u0d7d\u0d17\u0d4d\u0d30\u0d4b\u0d35\u0d4d", "name:ta": "\u0bb9\u0bbf\u0bb2\u0bcd\u0b95\u0bc1\u0bb0\u0bcb\u0bb5\u0bcd", "network": "IR", "operator": "SR", "public_transport": "station", "railway": "station", "ref": "HLG", "train": "yes", "wikidata": "Q84568009"}, "geometry": {"type": "Point", "coordinates": [76.8356649, 11.3420141]}, "id": "node/279318254"}, {"type": "Feature", "properties": {"@id": "node/279954205", "internet_access": "no", "name": "Kallar", "name:ml": "\u0d15\u0d32\u0d4d\u0d32\u0d3e\u0d7c", "name:ta": "\u0b95\u0bb2\u0bcd\u0bb2\u0bbe\u0bb0\u0bcd", "network": "IR", "operator": "SR", "public_transport": "station", "railway": "station", "ref": "QLR", "train": "yes", "wikidata": "Q84567928"}, "geometry": {"type": "Point", "coordinates": [76.8829064, 11.3385535]}, "id": "node/279954205"}, {"type": "Feature", "properties": {"@id": "node/279992466", "internet_access": "no", "name": "Lovedale", "name:ml": "\u0d32\u0d35\u0d4d\u0d21\u0d47\u0d7d", "name:ta": "\u0bb2\u0bb5\u0bcd\u0b9f\u0bc7\u0bb2\u0bcd", "network": "IR", "operator": "SR", "railway": "station", "ref": "LOV", "wikidata": "Q18127530", "wikipedia": "en:Lovedale railway station"}, "geometry": {"type": "Point", "coordinates": [76.7051018, 11.3848345]}, "id": "node/279992466"}, {"type": "Feature", "properties": {"@id": "node/288370387", "internet_access": "wlan", "name": "Erode Junction", "name:ml": "\u0d08\u0d31\u0d4b\u0d21\u0d4d \u0d1c\u0d02\u0d17\u0d4d\u0d37\u0d7b", "name:ta": "\u0b88\u0bb0\u0bcb\u0b9f\u0bc1 \u0b9a\u0ba8\u0bcd\u0ba4\u0bbf\u0baa\u0bcd\u0baa\u0bc1", "network": "IR", "operator": "SR", "public_transport": "station", "railway": "station", "ref": "ED", "wikidata": "Q4520467", "wikipedia": "en:Erode Junction railway station"}, "geometry": {"type": "Point", "coordinates": [77.7257896, 11.3286258]}, "id": "node/288370387"}, {"type": "Feature", "properties": {"@id": "node/289582025", "internet_access": "no", "name": "Khairatabad", "name:te": "\u0c16\u0c48\u0c30\u0c24\u0c3e\u0c2c\u0c3e\u0c26\u0c4d", "name:ur": "\u062e\u06cc\u0631\u062a \u0622\u0628\u0627\u062f", "network": "IR", "operator": "SCR", "platforms": "2", "public_transport": "station", "railway": "station", "ref": "KQD", "train": "yes", "wikidata": "Q6399082", "wikipedia": "en:Khairatabad railway station"}, "geometry": {"type": "Point", "coordinates": [78.4610582, 17.4129744]}, "id": "node/289582025"}, {"type": "Feature", "properties": {"@id": "node/289582401", "internet_access": "no", "name": "Necklace Road", "name:te": "\u0c28\u0c46\u0c15\u0c4d\u0c32\u0c46\u0c38\u0c4d \u0c30\u0c4b\u0c21\u0c4d\u0c21\u0c41", "name:ur": "\u0646\u06a9\u0644\u06cc\u0633 \u0631\u0648\u0688", "network": "IR", "operator": "SCR", "platforms": "2", "public_transport": "station", "railway": "station", "ref": "NLRD", "train": "yes", "wikidata": "Q6985575", "wikipedia": "en:Necklace Road railway station"}, "geometry": {"type": "Point", "coordinates": [78.4631857, 17.4233355]}, "id": "node/289582401"}, {"type": "Feature", "properties": {"@id": "node/289656763", "internet_access": "no", "name": "Hyderabad Deccan Nampally", "name:fa": "\u062d\u06cc\u062f\u0631\u0622\u0628\u0627\u062f \u062f\u06a9\u0646", "name:te": "\u0c39\u0c48\u0c26\u0c30\u0c3e\u0c2c\u0c3e\u0c26\u0c4d \u0c26\u0c15\u0c4d\u0c15\u0c28\u0c4d \u0c28\u0c3e\u0c02\u0c2a\u0c32\u0c4d\u0c32\u0c3f", "name:ur": "\u062d\u06cc\u062f\u0631\u0622\u0628\u0627\u062f \u062f\u06a9\u0646", "network": "IR", "operator": "SCR", "platforms": "6", "railway": "station", "ref": "HYB", "train": "yes", "wheelchair": "limited", "wikidata": "Q3633967", "wikipedia": "en:Hyderabad Deccan railway station"}, "geometry": {"type": "Point", "coordinates": [78.4675956, 17.3924223]}, "id": "node/289656763"}, {"type": "Feature", "properties": {"@id": "node/295423775", "internet_access": "no", "name": "Kaniyapuram", "name:ml": "\u0d15\u0d23\u0d3f\u0d2f\u0d3e\u0d2a\u0d41\u0d30\u0d02", "network": "IR", "operator": "SR", "railway": "station", "ref": "KXP", "wikidata": "Q63370124"}, "geometry": {"type": "Point", "coordinates": [76.854403, 8.5874032]}, "id": "node/295423775"}, {"type": "Feature", "properties": {"@id": "node/297649087", "internet_access": "no", "name": "Ajni", "name:hi": "\u0905\u091c\u0928\u0940", "network": "IR", "operator": "CR", "public_transport": "station", "railway": "station", "ref": "AJNI", "train": "yes", "wikidata": "Q4699920", "wikipedia": "en:Ajni railway station"}, "geometry": {"type": "Point", "coordinates": [79.0825751, 21.1269226]}, "id": "node/297649087"}, {"type": "Feature", "properties": {"@id": "node/298609247", "alt_name": "Mangalore Junction", "internet_access": "no", "name": "Mangaluru Junction", "name:kn": "\u0cae\u0c82\u0c97\u0cb3\u0cc2\u0cb0\u0cc1 \u0c9c\u0c82\u0c95\u0ccd\u0cb7\u0ca8\u0ccd", "name:ml": "\u0d2e\u0d02\u0d17\u0d32\u0d3e\u0d2a\u0d41\u0d30\u0d02 \u0d1c\u0d02\u0d17\u0d4d\u0d37\u0d7b", "network": "IR", "old_name": "Kankanadi", "operator": "SR", "railway": "station", "ref": "MAJN", "wikidata": "Q16894563"}, "geometry": {"type": "Point", "coordinates": [74.8792308, 12.866628]}, "id": "node/298609247"}, {"type": "Feature", "properties": {"@id": "node/298611723", "designation": "MULK", "internet_access": "no", "name": "Mulki", "name:kn": "\u0cae\u0cc1\u0cb2\u0ccd\u0c95\u0cbf", "name:ml": "\u0d2e\u0d41\u0d7d\u0d15\u0d4d\u0d15\u0d3f", "network": "IR", "operator": "KR", "platforms": "2", "public_transport": "station", "railway": "station", "ref": "MULK", "train": "yes", "wikidata": "Q25573871", "wikipedia": "en:Mulki railway station"}, "geometry": {"type": "Point", "coordinates": [74.8052727, 13.068958]}, "id": "node/298611723"}, {"type": "Feature", "properties": {"@id": "node/298616683", "internet_access": "no", "name": "Badnera Junction", "network": "IR", "operator": "CR", "public_transport": "station", "railway": "station", "ref": "BD", "train": "yes", "wheelchair": "yes", "wikidata": "Q15195945", "wikipedia": "en:Badnera Junction railway station"}, "geometry": {"type": "Point", "coordinates": [77.7321821, 20.8570611]}, "id": "node/298616683"}, {"type": "Feature", "properties": {"@id": "node/298620871", "internet_access": "no", "name": "Kaotha", "network": "IR", "operator": "CR", "public_transport": "station", "railway": "station", "ref": "KAOT", "train": "yes", "wikidata": "Q63356083"}, "geometry": {"type": "Point", "coordinates": [78.3773822, 20.7373659]}, "id": "node/298620871"}, {"type": "Feature", "properties": {"@id": "node/298665222", "internet_access": "no", "name": "Kanhan Junction", "network": "IR", "operator": "SECR", "public_transport": "station", "railway": "station", "ref": "KNHN", "wikidata": "Q61368113"}, "geometry": {"type": "Point", "coordinates": [79.2368087, 21.224885]}, "id": "node/298665222"}, {"type": "Feature", "properties": {"@id": "node/300062249", "check_date:wheelchair": "2023-09-16", "internet_access": "no", "name": "Padil", "name:kn": "\u0caa\u0cbe\u0ca1\u0cc0\u0cb2\u0ccd", "network": "IR", "operator": "SR", "public_transport": "station", "railway": "station", "ref": "PADL", "wheelchair": "no", "wikidata": "Q63369074"}, "geometry": {"type": "Point", "coordinates": [74.894361, 12.8752966]}, "id": "node/300062249"}, {"type": "Feature", "properties": {"@id": "node/304278622", "internet_access": "no", "name": "Anna Nagar West", "name:ml": "\u0d05\u0d23\u0d4d\u0d23\u0d3e \u0d28\u0d17\u0d7c \u0d2a\u0d1f\u0d3f\u0d1e\u0d4d\u0d1e\u0d3e\u0d31\u0d4d", "name:ta": "\u0b85\u0ba3\u0bcd\u0ba3\u0bbe \u0ba8\u0b95\u0bb0\u0bcd \u0bae\u0bc7\u0bb1\u0bcd\u0b95\u0bc1", "network": "IR", "operator": "SR", "public_transport": "station", "railway": "station", "ref": "ANNG", "wikidata": "Q4767370", "wikipedia": "en:Anna Nagar railway station"}, "geometry": {"type": "Point", "coordinates": [80.2010061, 13.0985386]}, "id": "node/304278622"}, {"type": "Feature", "properties": {"@id": "node/304281114", "internet_access": "no", "name": "Cheruvattur", "name:kn": "\u0c9a\u0cc6\u0cb0\u0cc1\u0cb5\u0ca4\u0ccd\u0ca4\u0cc2\u0cb0\u0cc1", "name:ml": "\u0d1a\u0d46\u0d31\u0d41\u0d35\u0d24\u0d4d\u0d24\u0d42\u0d7c", "network": "IR", "operator": "SR", "public_transport": "station", "railway": "station", "ref": "CHV", "wikidata": "Q20717364", "wikipedia": "en:Cheruvathur railway station"}, "geometry": {"type": "Point", "coordinates": [75.154426, 12.2145179]}, "id": "node/304281114"}, {"type": "Feature", "properties": {"@id": "node/304986468", "internet_access": "no", "name": "Neyyattinkara", "name:ar": "\u0646\u064a\u064a\u0627\u062a\u064a\u0646 \u0643\u0631\u0627", "name:en": "Neyyattinkara", "name:ml": "\u0d28\u0d46\u0d2f\u0d4d\u0d2f\u0d3e\u0d31\u0d4d\u0d31\u0d3f\u0d7b\u0d15\u0d30", "name:ta": "\u0ba8\u0bc6\u0baf\u0bcd\u0baf\u0bbe\u0bb1\u0bcd\u0bb1\u0bbf\u0ba9\u0bcd\u0b95\u0bb0\u0bc8", "name:ur": "\u0646\u0626\u06cc\u0627\u0679\u06cc\u0646 \u06a9\u0631\u0627", "network": "IR", "operator": "SR", "public_transport": "station", "railway": "station", "ref": "NYY", "wikidata": "Q15262230", "wikipedia": "en:Neyyattinkara railway station"}, "geometry": {"type": "Point", "coordinates": [77.0816275, 8.4100639]}, "id": "node/304986468"}, {"type": "Feature", "properties": {"@id": "node/304986485", "internet_access": "no", "name": "Balaramapuram", "name:ml": "\u0d2c\u0d3e\u0d32\u0d30\u0d3e\u0d2e\u0d2a\u0d41\u0d30\u0d02", "name:ta": "\u0baa\u0bbe\u0bb2\u0bb0\u0bbe\u0bae\u0baa\u0bc1\u0bb0\u0bae\u0bcd", "network": "IR", "operator": "SR", "public_transport": "station", "railway": "station", "ref": "BRAM", "wikidata": "Q63357364"}, "geometry": {"type": "Point", "coordinates": [77.0519047, 8.429903]}, "id": "node/304986485"}, {"type": "Feature", "properties": {"@id": "node/305221832", "internet_access": "no", "name": "Itwari Junction", "network": "IR", "old_ref": "ITR", "operator": "SECR", "public_transport": "station", "railway": "station", "ref": "NITR", "wikidata": "Q15228951", "wikipedia": "en:Itwari railway station"}, "geometry": {"type": "Point", "coordinates": [79.1188261, 21.1575034]}, "id": "node/305221832"}, {"type": "Feature", "properties": {"@id": "node/305232115", "internet_access": "no", "name": "Tumsar Road Junction", "name:hi": "\u0924\u0941\u092e\u0938\u0930 \u0930\u094b\u0921", "network": "IR", "operator": "SECR", "public_transport": "station", "railway": "station", "ref": "TMR", "wikidata": "Q24948012", "wikipedia": "en:Tumsar Road railway station"}, "geometry": {"type": "Point", "coordinates": [79.7511434, 21.3421773]}, "id": "node/305232115"}, {"type": "Feature", "properties": {"@id": "node/305234547", "internet_access": "no", "name": "Rajnandgaon", "name:ja": "\u30e9\u30fc\u30b8\u30ca\u30fc\u30f3\u30c9\u30ac\u30fc\u30aa\u30f3", "name:ne": "\u0930\u093e\u091c\u0928\u0928\u094d\u0926\u0917\u093e\u0901\u0935", "name:ur": "\u0631\u0627\u062c\u0646\u0646\u062f\u06af\u0627\u0624\u06ba", "network": "IR", "operator": "SECR", "public_transport": "station", "railway": "station", "ref": "RJN", "wikidata": "Q7286335", "wikimedia_commons": "File:Rajnandgaon_Railway_Station.jpg"}, "geometry": {"type": "Point", "coordinates": [81.0379824, 21.1014629]}, "id": "node/305234547"}, {"type": "Feature", "properties": {"@id": "node/305287020", "internet_access": "no", "name": "Bhilai Nagar", "name:en": "Bhilai Nagar", "name:hi": "\u092d\u093f\u0932\u093e\u0908 \u0928\u0917\u0930", "network": "IR", "operator": "SECR", "public_transport": "station", "railway": "station", "ref": "BQR", "train": "yes", "wikidata": "Q24948215", "wikipedia": "en:Bhilai Nagar railway station"}, "geometry": {"type": "Point", "coordinates": [81.3352266, 21.2011836]}, "id": "node/305287020"}, {"type": "Feature", "properties": {"@id": "node/305287023", "internet_access": "no", "name": "Bhilai Power House", "name:hi": "\u092d\u093f\u0932\u093e\u0908 \u092a\u093e\u0935\u0930 \u0939\u093e\u0909\u0938", "network": "IR", "operator": "SECR", "public_transport": "station", "railway": "station", "ref": "BPHB", "wikidata": "Q23074356", "wikipedia": "en:Bhilai Power House railway station"}, "geometry": {"type": "Point", "coordinates": [81.3758068, 21.2082282]}, "id": "node/305287023"}, {"type": "Feature", "properties": {"@id": "node/305287025", "fixme": "there are 2 wikidata entries: Q96373502 and Q63355856", "internet_access": "no", "name": "Bhilai", "name:hi": "\u092d\u093f\u0932\u093e\u0908", "network": "IR", "operator": "SECR", "public_transport": "station", "railway": "station", "ref": "BIA", "wikidata": "Q63355856", "wikipedia": "en:Bhilai railway station"}, "geometry": {"type": "Point", "coordinates": [81.4210875, 21.2028719]}, "id": "node/305287025"}, {"type": "Feature", "properties": {"@id": "node/306469779", "addr:city": "Sirajganj", "name": "\u09b8\u09be\u09af\u09bc\u09a6\u09be\u09ac\u09be\u09a6 \u09b0\u09c7\u09b2 \u09b8\u09cd\u099f\u09c7\u09b6\u09a8", "name:bn": "\u09b8\u09be\u09af\u09bc\u09a6\u09be\u09ac\u09be\u09a6 \u09b0\u09c7\u09b2 \u09b8\u09cd\u099f\u09c7\u09b6\u09a8", "name:en": "Saidabad Railway Station", "old_name": "\u09ac\u0999\u09cd\u0997\u09ac\u09a8\u09cd\u09a7\u09c1 \u09b8\u09c7\u09a4\u09c1 \u09aa\u09b6\u09cd\u099a\u09bf\u09ae \u09b0\u09c7\u09b2\u0993\u09af\u09bc\u09c7 \u09b8\u09cd\u099f\u09c7\u09b6\u09a8", "old_name:en": "Bangabandhu Bridge West Railway Station", "public_transport": "station", "railway": "station", "train": "yes"}, "geometry": {"type": "Point", "coordinates": [89.7334733, 24.396119]}, "id": "node/306469779"}, {"type": "Feature", "properties": {"@id": "node/306469787", "name": "\u0987\u09ac\u09cd\u09b0\u09be\u09b9\u09bf\u09ae\u09be\u09ac\u09be\u09a6 \u09b0\u09c7\u09b2 \u09b8\u09cd\u099f\u09c7\u09b6\u09a8", "name:bn": "\u0987\u09ac\u09cd\u09b0\u09be\u09b9\u09bf\u09ae\u09be\u09ac\u09be\u09a6 \u09b0\u09c7\u09b2 \u09b8\u09cd\u099f\u09c7\u09b6\u09a8", "name:en": "Ibrahimabad Rail Station", "old_name": "\u09ac\u0999\u09cd\u0997\u09ac\u09a8\u09cd\u09a7\u09c1 \u09b8\u09c7\u09a4\u09c1 \u09aa\u09c2\u09b0\u09cd\u09ac \u09b0\u09c7\u09b2\u0993\u09af\u09bc\u09c7 \u09b8\u09cd\u099f\u09c7\u09b6\u09a8", "old_name:en": "Bangabandhu Bridge East Railway Station", "operator": "\u09ac\u09be\u0982\u09b2\u09be\u09a6\u09c7\u09b6 \u09b0\u09c7\u09b2\u0993\u09df\u09c7", "operator:en": "Bangladesh Railway", "public_transport": "station", "railway": "station"}, "geometry": {"type": "Point", "coordinates": [89.8200921, 24.3895108]}, "id": "node/306469787"}, {"type": "Feature", "properties": {"@id": "node/307015337", "alt_name:ur": "\u0645\u0644\u06a9 \u067e\u06cc\u0679", "internet_access": "no", "name": "Malakpet", "name:ar": "\u0645\u0627\u0644\u0643 \u0628\u064a\u062a", "name:fa": "\u0645\u0644\u06a9 \u067e\u06cc\u062a", "name:ur": "\u0645\u0627\u0644\u06a9 \u067e\u06cc\u0679", "network": "IR", "operator": "SCR", "platforms": "2", "public_transport": "station", "railway": "station", "ref": "MXT", "train": "yes", "wikidata": "Q6741191", "wikipedia": "en:Malakpet railway station"}, "geometry": {"type": "Point", "coordinates": [78.4948263, 17.3765035]}, "id": "node/307015337"}, {"type": "Feature", "properties": {"@id": "node/307023348", "historic": "yes", "internet_access": "wlan", "name": "Kacheguda", "name:ml": "\u0d15\u0d3e\u0d1a\u0d4d\u0d1a\u0d3f\u0d17\u0d41\u0d21", "name:te": "\u0c15\u0c3e\u0c1a\u0c3f\u0c17\u0c42\u0c21", "name:ur": "\u06a9\u0627\u0686\u06cc \u06af\u0648\u0691\u06c1", "network": "IR", "operator": "SCR", "public_transport": "station", "railway": "station", "ref": "KCG", "train": "yes", "wikidata": "Q6344674", "wikipedia": "en:Kacheguda railway station"}, "geometry": {"type": "Point", "coordinates": [78.4992403, 17.389311]}, "id": "node/307023348"}, {"type": "Feature", "properties": {"@id": "node/308061696", "internet_access": "no", "name": "Hejjala", "name:kn": "\u0cb9\u0cc6\u0c9c\u0ccd\u0c9c\u0cbe\u0cb2", "name:ml": "\u0d39\u0d46\u0d1c\u0d4d\u0d1c\u0d3e\u0d32", "network": "IR", "operator": "SWR", "public_transport": "station", "railway": "station", "ref": "HJL", "wikidata": "Q84461344"}, "geometry": {"type": "Point", "coordinates": [77.4183276, 12.8484112]}, "id": "node/308061696"}, {"type": "Feature", "properties": {"@id": "node/308062102", "addr:city": "Bengaluru", "internet_access": "wlan", "name": "Kengeri", "name:kn": "\u0c95\u0cc6\u0c82\u0c97\u0cc7\u0cb0\u0cbf", "name:ml": "\u0d15\u0d46\u0d19\u0d4d\u0d15\u0d47\u0d30\u0d3f", "network": "IR", "operator": "SWR", "public_transport": "station", "railway": "station", "ref": "KGI", "train": "yes", "wheelchair": "limited", "wikidata": "Q24949818", "wikipedia": "en:Kengeri railway station"}, "geometry": {"type": "Point", "coordinates": [77.4837568, 12.9176571]}, "id": "node/308062102"}, {"type": "Feature", "properties": {"@id": "node/308062851", "internet_access": "no", "name": "Nayandahalli", "name:kn": "\u0ca8\u0cbe\u0caf\u0c82\u0ca1\u0cb9\u0cb3\u0ccd\u0cb3\u0cbf", "name:ml": "\u0d28\u0d3e\u0d2f\u0d23\u0d4d\u0d1f\u0d39\u0d33\u0d4d\u0d33\u0d3f", "network": "IR", "operator": "SWR", "platforms": "3", "public_transport": "station", "railway": "station", "ref": "NYH", "wikidata": "Q55624883", "wikipedia": "en:Nayandahalli railway station"}, "geometry": {"type": "Point", "coordinates": [77.5212118, 12.9413253]}, "id": "node/308062851"}, {"type": "Feature", "properties": {"@id": "node/308073351", "internet_access": "no", "name": "Chikka Banavara", "name:en": "Chikkabanavara", "name:hi": "\u091a\u093f\u0915\u094d\u0915\u092c\u093e\u0923\u0935\u093e\u0930", "name:kn": "\u0c9a\u0cbf\u0c95\u0ccd\u0c95 \u0cac\u0cbe\u0ca3\u0cb5\u0cbe\u0cb0", "network": "IR", "operator": "SWR", "public_transport": "station", "railway": "station", "ref": "BAW", "wikidata": "Q63355771"}, "geometry": {"type": "Point", "coordinates": [77.5056373, 13.0746787]}, "id": "node/308073351"}, {"type": "Feature", "properties": {"@id": "node/308937020", "internet_access": "no", "name": "Moula Ali", "name:fa": "\u0645\u0648\u0644\u0627 \u0639\u0644\u06cc", "name:te": "\u0c2e\u0c4c\u0c32\u0c3e \u0c05\u0c32\u0c3f", "name:ur": "\u0645\u0648\u0644\u0627 \u0639\u0644\u06cc", "network": "IR", "operator": "SCR", "public_transport": "station", "railway": "station", "ref": "MLY", "train": "yes", "wikidata": "Q62004881", "wikipedia": "en:Moula Ali railway station"}, "geometry": {"type": "Point", "coordinates": [78.5506697, 17.4407394]}, "id": "node/308937020"}, {"type": "Feature", "properties": {"@id": "node/310988176", "IR:zone": "ER", "name": "Titagarh", "network": "IR", "operator": "ER", "public_transport": "station", "railway": "station", "ref": "TGH", "wikidata": "Q56280776", "wikipedia": "en:Titagarh railway station"}, "geometry": {"type": "Point", "coordinates": [88.3745843, 22.7411261]}, "id": "node/310988176"}, {"type": "Feature", "properties": {"@id": "node/310988205", "name": "Shyamnagar", "name:hi": "\u0936\u094d\u092f\u093e\u092e\u0928\u0917\u0930", "network": "IR", "operator": "ER", "railway": "station", "ref": "SNR", "source": "indiarailinfo.com", "wikidata": "Q56280798", "wikipedia": "en:Shyamnagar railway station"}, "geometry": {"type": "Point", "coordinates": [88.3801893, 22.8285164]}, "id": "node/310988205"}, {"type": "Feature", "properties": {"@id": "node/310989031", "name": "Naihati Junction", "network": "IR", "operator": "ER", "railway": "station", "ref": "NH", "wikidata": "Q15260806", "wikipedia": "en:Naihati Junction railway station"}, "geometry": {"type": "Point", "coordinates": [88.4176531, 22.8870061]}, "id": "node/310989031"}, {"type": "Feature", "properties": {"@id": "node/310989041", "name": "Halisahar", "network": "IR", "operator": "ER", "public_transport": "station", "railway": "station", "ref": "HLR", "train": "yes", "wikidata": "Q31296042", "wikipedia": "en:Halisahar railway station"}, "geometry": {"type": "Point", "coordinates": [88.436979, 22.9209659]}, "id": "node/310989041"}, {"type": "Feature", "properties": {"@id": "node/310989046", "name": "Kanchrapara Workshop Gate", "network": "IR", "operator": "ER", "public_transport": "station", "railway": "station", "ref": "KPAW", "wikidata": "Q56280822", "wikipedia": "en:Kanchrapara Workshop Gate railway station"}, "geometry": {"type": "Point", "coordinates": [88.4448113, 22.9347119]}, "id": "node/310989046"}, {"type": "Feature", "properties": {"@id": "node/310990693", "IR:div": "HWH", "IR:stn_cat": "SG-3", "IR:zone": "ER", "internet_access": "no", "name": "Tribeni", "network": "IR", "operator": "ER", "public_transport": "station", "railway": "station", "ref": "TBAE", "train": "yes", "wikidata": "Q60144338", "wikipedia": "en:Tribeni railway station"}, "geometry": {"type": "Point", "coordinates": [88.3982606, 22.990303]}, "id": "node/310990693"}, {"type": "Feature", "properties": {"@id": "node/310992938", "IR:div": "HWH", "IR:stn_cat": "SG-3", "IR:zone": "ER", "name": "Nasibpur", "network": "IR", "operator": "ER", "public_transport": "station", "railway": "station", "ref": "NSF", "wheelchair": "limited", "wikidata": "Q60062017", "wikipedia": "en:Nasibpur railway station"}, "geometry": {"type": "Point", "coordinates": [88.2636731, 22.8046405]}, "id": "node/310992938"}, {"type": "Feature", "properties": {"@id": "node/310993110", "IR:div": "HWH", "IR:stn_cat": "SG-3", "IR:zone": "ER", "air_conditioning": "no", "baby_feeding": "no", "internet_access": "no", "name": "Uttarpara", "network": "IR", "operator": "ER", "public_transport": "station", "railway": "station", "ref": "UPA", "wheelchair": "limited", "wikidata": "Q59915178", "wikipedia": "en:Uttarpara railway station"}, "geometry": {"type": "Point", "coordinates": [88.3411458, 22.6670459]}, "id": "node/310993110"}, {"type": "Feature", "properties": {"@id": "node/310996032", "name": "Kazipara", "network": "IR", "operator": "ER", "public_transport": "station", "railway": "station", "ref": "KZPR", "wikidata": "Q56278576", "wikimedia_commons": "File:Kazipara_railway_station.jpg", "wikipedia": "en:Kazipara railway station"}, "geometry": {"type": "Point", "coordinates": [88.5083659, 22.7226496]}, "id": "node/310996032"}, {"type": "Feature", "properties": {"@id": "node/310996044", "name": "Bahira Kalibari", "network": "IR", "operator": "ER", "railway": "station", "ref": "BHKA", "wikidata": "Q56278578", "wikipedia": "en:Bahira Kalibari railway station"}, "geometry": {"type": "Point", "coordinates": [88.5648945, 22.6859708]}, "id": "node/310996044"}, {"type": "Feature", "properties": {"@id": "node/317047338", "internet_access": "no", "name": "Anand Junction", "network": "IR", "operator": "WR", "public_transport": "station", "railway": "station", "ref": "ANND", "train": "yes", "wikidata": "Q4751267", "wikipedia": "en:Anand Junction railway station"}, "geometry": {"type": "Point", "coordinates": [72.9659457, 22.5617213]}, "id": "node/317047338"}, {"type": "Feature", "properties": {"@id": "node/317047858", "internet_access": "no", "name": "Sadanapura", "network": "IR", "operator": "WR", "public_transport": "station", "railway": "station", "ref": "SNA", "train": "yes", "wikidata": "Q63357120"}, "geometry": {"type": "Point", "coordinates": [73.0113438, 22.6011883]}, "id": "node/317047858"}, {"type": "Feature", "properties": {"@id": "node/317049926", "internet_access": "no", "name": "Savli", "network": "IR", "operator": "WR", "public_transport": "station", "railway": "station", "ref": "SVLI", "train": "yes", "wikidata": "Q104472367"}, "geometry": {"type": "Point", "coordinates": [73.2272125, 22.555925]}, "id": "node/317049926"}, {"type": "Feature", "properties": {"@id": "node/318132819", "internet_access": "no", "name": "Vishwamitri Junction", "network": "IR", "operator": "WR", "public_transport": "station", "railway": "station", "ref": "VS", "train": "yes"}, "geometry": {"type": "Point", "coordinates": [73.1789829, 22.2846096]}, "id": "node/318132819"}, {"type": "Feature", "properties": {"@id": "node/318135704", "internet_access": "no", "name": "Pratapnagar", "name:gu": "\u0aaa\u0acd\u0ab0\u0aa4\u0abe\u0aaa\u0aa8\u0a97\u0ab0", "name:hi": "\u092a\u094d\u0930\u0924\u093e\u092a\u0928\u0917\u0930", "network": "IR", "old_name": "Goya Gate", "operator": "WR", "public_transport": "station", "railway": "station", "ref": "PRTN", "train": "yes", "wikidata": "Q63355468", "wikipedia": "en:Pratapnagar railway station"}, "geometry": {"type": "Point", "coordinates": [73.2108325, 22.2814988]}, "id": "node/318135704"}, {"type": "Feature", "properties": {"@id": "node/318140382", "internet_access": "no", "name": "Makarpura", "network": "IR", "operator": "WR", "public_transport": "station", "railway": "station", "ref": "MPR", "train": "yes", "wikidata": "Q63355453"}, "geometry": {"type": "Point", "coordinates": [73.1759325, 22.233662]}, "id": "node/318140382"}, {"type": "Feature", "properties": {"@id": "node/318143159", "internet_access": "no", "name": "Chhayapuri", "network": "IR", "operator": "WR", "public_transport": "station", "railway": "station", "ref": "CYI", "train": "yes", "wikidata": "Q63355352", "wikipedia": "en:Chhayapuri railway station"}, "geometry": {"type": "Point", "coordinates": [73.1656446, 22.3712532]}, "id": "node/318143159"}, {"type": "Feature", "properties": {"@id": "node/318143940", "internet_access": "no", "name": "Bajva", "network": "IR", "operator": "WR", "public_transport": "station", "railway": "station", "ref": "BJW", "train": "yes", "wikidata": "Q4848954", "wikipedia": "en:Bajva railway station"}, "geometry": {"type": "Point", "coordinates": [73.14378, 22.3668433]}, "id": "node/318143940"}, {"type": "Feature", "properties": {"@id": "node/318156510", "internet_access": "no", "name": "Kanjari Boriyavi Junction", "network": "IR", "operator": "WR", "public_transport": "station", "railway": "station", "ref": "KBRV", "train": "yes", "wikidata": "Q60368396", "wikipedia": "en:Kanjari Boriyavi Junction railway station"}, "geometry": {"type": "Point", "coordinates": [72.9218334, 22.6156749]}, "id": "node/318156510"}, {"type": "Feature", "properties": {"@id": "node/318157831", "internet_access": "no", "name": "Vadod", "network": "IR", "operator": "WR", "public_transport": "station", "railway": "station", "ref": "VXD", "train": "yes", "wikidata": "Q63355451"}, "geometry": {"type": "Point", "coordinates": [73.0083139, 22.514477]}, "id": "node/318157831"}, {"type": "Feature", "properties": {"@id": "node/318157883", "internet_access": "no", "name": "Adas Road", "network": "IR", "operator": "WR", "public_transport": "station", "railway": "station", "ref": "ADD", "train": "yes", "wikidata": "Q63354702"}, "geometry": {"type": "Point", "coordinates": [73.0338876, 22.4869052]}, "id": "node/318157883"}, {"type": "Feature", "properties": {"@id": "node/318158761", "internet_access": "no", "name": "Vasad Junction", "network": "IR", "operator": "WR", "public_transport": "station", "railway": "station", "ref": "VDA", "train": "yes", "wikidata": "Q60368393", "wikipedia": "en:Vasad Junction railway station"}, "geometry": {"type": "Point", "coordinates": [73.0606454, 22.4528694]}, "id": "node/318158761"}, {"type": "Feature", "properties": {"@id": "node/318159226", "internet_access": "no", "name": "Nandesari", "network": "IR", "operator": "WR", "public_transport": "station", "railway": "station", "ref": "NDR", "train": "yes", "wikidata": "Q6963210", "wikipedia": "en:Nandesari railway station"}, "geometry": {"type": "Point", "coordinates": [73.0949186, 22.4178037]}, "id": "node/318159226"}, {"type": "Feature", "properties": {"@id": "node/318258387", "internet_access": "no", "name": "Vallabh Vidynagar", "network": "IR", "operator": "WR", "public_transport": "station", "railway": "station", "ref": "VLYN", "train": "yes", "wikidata": "Q104457153"}, "geometry": {"type": "Point", "coordinates": [72.9310688, 22.5423493]}, "id": "node/318258387"}, {"type": "Feature", "properties": {"@id": "node/319330553", "internet_access": "no", "name": "Pilol", "name:en": "Pilol", "name:hi": "\u092a\u093f\u0932\u094b\u0932", "network": "IR", "operator": "WR", "public_transport": "station", "railway": "station", "ref": "PIO", "train": "yes", "wikidata": "Q63355350"}, "geometry": {"type": "Point", "coordinates": [73.2098796, 22.4151532]}, "id": "node/319330553"}, {"type": "Feature", "properties": {"@id": "node/322770856", "internet_access": "no", "name": "Naroda", "network": "IR", "operator": "WR", "public_transport": "station", "railway": "station", "ref": "NRD", "train": "yes", "wikidata": "Q63358132"}, "geometry": {"type": "Point", "coordinates": [72.6580946, 23.0854097]}, "id": "node/322770856"}, {"type": "Feature", "properties": {"@id": "node/322983346", "internet_access": "no", "name": "Vastrapur", "network": "IR", "operator": "WR", "public_transport": "station", "railway": "station", "ref": "VTP", "train": "yes", "wikidata": "Q63357815"}, "geometry": {"type": "Point", "coordinates": [72.5174367, 23.0079064]}, "id": "node/322983346"}, {"type": "Feature", "properties": {"@id": "node/323120091", "internet_access": "no", "name": "Maninagar", "network": "IR", "operator": "WR", "public_transport": "station", "railway": "station", "ref": "MAN", "train": "yes", "wikidata": "Q6749778", "wikipedia": "en:Maninagar railway station"}, "geometry": {"type": "Point", "coordinates": [72.6114013, 22.9986596]}, "id": "node/323120091"}, {"type": "Feature", "properties": {"@id": "node/323189766", "historic:ref": "SBI", "internet_access": "no", "name": "Sabarmati", "network": "IR", "operator": "WR", "public_transport": "station", "railway": "station", "ref": "SBIB", "train": "yes", "wikidata": "Q7395913", "wikipedia": "en:Sabarmati Junction railway station"}, "geometry": {"type": "Point", "coordinates": [72.5890677, 23.0770712]}, "id": "node/323189766"}, {"type": "Feature", "properties": {"@id": "node/334641675", "name": "Kappil", "name:ml": "\u0d15\u0d3e\u0d2a\u0d4d\u0d2a\u0d3f\u0d7d", "network": "IR", "operator": "SR", "public_transport": "station", "railway": "station", "ref": "KFI", "wikidata": "Q58814843", "wikipedia": "en:Kappil railway station"}, "geometry": {"type": "Point", "coordinates": [76.6792879, 8.7795558]}, "id": "node/334641675"}, {"type": "Feature", "properties": {"@id": "node/334652322", "internet_access": "no", "name": "Mayyanad", "name:ml": "\u0d2e\u0d2f\u0d4d\u0d2f\u0d28\u0d3e\u0d1f\u0d4d", "network": "IR", "operator": "SR", "public_transport": "station", "railway": "station", "ref": "MYY", "wikidata": "Q18127933", "wikipedia": "en:Mayyanad railway station"}, "geometry": {"type": "Point", "coordinates": [76.6476808, 8.8380291]}, "id": "node/334652322"}, {"type": "Feature", "properties": {"@id": "node/335560058", "internet_access": "no", "name": "Kadakavur", "name:ml": "\u0d15\u0d1f\u0d15\u0d4d\u0d15\u0d3e\u0d35\u0d42\u0d7c", "name:ta": "\u0b95\u0b9f\u0b95\u0bcd\u0b95\u0bb5\u0bc2\u0bb0\u0bcd", "network": "IR", "operator": "SR", "public_transport": "station", "railway": "station", "ref": "KVU", "wikidata": "Q20717527", "wikipedia": "en:Kadakkavoor railway station"}, "geometry": {"type": "Point", "coordinates": [76.7676427, 8.6786987]}, "id": "node/335560058"}, {"type": "Feature", "properties": {"@id": "node/335560073", "internet_access": "no", "name": "Chirayinkeezh", "name:ml": "\u0d1a\u0d3f\u0d31\u0d2f\u0d3f\u0d7b\u0d15\u0d40\u0d34\u0d4d", "network": "IR", "operator": "SR", "public_transport": "station", "railway": "station", "ref": "CRY", "wheelchair": "yes", "wikidata": "Q20717380", "wikipedia": "en:Chirayinkeezhu railway station"}, "geometry": {"type": "Point", "coordinates": [76.7855551, 8.6595556]}, "id": "node/335560073"}, {"type": "Feature", "properties": {"@id": "node/335867995", "internet_access": "no", "name": "Settigunta", "network": "IR", "operator": "SCR", "public_transport": "station", "railway": "station", "ref": "SF", "wikidata": "Q63369553"}, "geometry": {"type": "Point", "coordinates": [79.3841762, 13.870358]}, "id": "node/335867995"}, {"type": "Feature", "properties": {"@id": "node/338274462", "internet_access": "no", "name": "Yelahanka Junction", "name:hi": "\u092f\u0932\u0939\u0902\u0915\u093e \u091c\u0902\u0915\u094d\u0936\u0928", "name:kn": "\u0caf\u0cb2\u0cb9\u0c82\u0c95 \u0c9c\u0c82\u0c95\u0ccd\u0cb7\u0ca8\u0ccd", "name:ml": "\u0d2f\u0d46\u0d32\u0d39\u0d19\u0d4d\u0d15 \u0d1c\u0d02\u0d17\u0d4d\u0d37\u0d7b", "network": "IR", "operator": "SWR", "public_transport": "station", "railway": "station", "ref": "YNK", "train": "yes", "wheelchair": "limited", "wikidata": "Q60569660"}, "geometry": {"type": "Point", "coordinates": [77.5918938, 13.1050067]}, "id": "node/338274462"}, {"type": "Feature", "properties": {"@id": "node/340415095", "internet_access": "no", "name": "Varkala Sivagiri", "name:ml": "\u0d35\u0d7c\u0d15\u0d4d\u0d15\u0d32 \u0d36\u0d3f\u0d35\u0d17\u0d3f\u0d30\u0d3f", "network": "IR", "operator": "SR", "railway": "station", "ref": "VAK", "wheelchair": "yes", "wikidata": "Q16902523", "wikipedia": "en:Varkala Sivagiri railway station"}, "geometry": {"type": "Point", "coordinates": [76.723134, 8.7406369]}, "id": "node/340415095"}, {"type": "Feature", "properties": {"@id": "node/343304315", "addr:city": "Pune", "addr:housenumber": "Near Jahangir Hospital", "addr:street": "Sassoon Marg", "internet_access": "wlan", "name": "Pune Junction", "name:en": "Pune Junction", "name:hi": "\u092a\u0941\u0923\u0947 \u091c\u0902\u0915\u094d\u0936\u0928", "name:mr": "\u092a\u0941\u0923\u0947 \u091c\u0902\u0915\u094d\u0936\u0928", "name:ta": "\u092a\u0941\u0923\u0947 \u091c\u0902\u0915\u094d\u0936\u0928", "network": "IR", "operator": "CR", "public_transport": "station", "railway": "station", "railway:ref": "PUNE", "ref": "PUNE", "short_name": "Pune Jn.", "short_name:hi": "\u092a\u0941\u0923\u0947 \u091c\u0902", "short_name:mr": "\u092a\u0941\u0923\u0947 \u091c\u0902", "short_name:ta": "\u092a\u0941\u0923\u0947 \u091c\u0902", "train": "yes", "wikidata": "Q3632576"}, "geometry": {"type": "Point", "coordinates": [73.8744146, 18.5288773]}, "id": "node/343304315"}, {"type": "Feature", "properties": {"@id": "node/343319245", "internet_access": "no", "name": "Nature Cure Hospital", "name:te": "\u0c2a\u0c4d\u0c30\u0c15\u0c43\u0c24\u0c3f \u0c1a\u0c3f\u0c15\u0c3f\u0c24\u0c4d\u0c38\u0c3e\u0c32\u0c2f \u0c30\u0c48\u0c32\u0c4d\u0c35\u0c47 \u0c38\u0c4d\u0c1f\u0c47\u0c37\u0c28\u0c4d", "network": "IR", "operator": "SCR", "platforms": "2", "public_transport": "station", "railway": "station", "ref": "NCHS", "train": "yes", "wikidata": "Q6980906", "wikipedia": "en:Nature Cure Hospital railway station"}, "geometry": {"type": "Point", "coordinates": [78.4521487, 17.4456571]}, "id": "node/343319245"}, {"type": "Feature", "properties": {"@id": "node/343641073", "internet_access": "no", "name": "Begumpet", "name:te": "\u0c2c\u0c47\u0c17\u0c02\u0c2a\u0c47\u0c1f\u0c4d", "name:ur": "\u0628\u06cc\u06af\u0645 \u067e\u06cc\u0679", "network": "IR", "operator": "SCR", "platforms": "2", "public_transport": "station", "railway": "station", "ref": "BMT", "train": "yes", "wikidata": "Q4880629", "wikipedia": "en:Begumpet railway station"}, "geometry": {"type": "Point", "coordinates": [78.4580969, 17.4386951]}, "id": "node/343641073"}, {"type": "Feature", "properties": {"@id": "node/344463079", "alt_name": "Chalakudy", "internet_access": "no", "name": "Chalakudi", "name:ml": "\u0d1a\u0d3e\u0d32\u0d15\u0d4d\u0d15\u0d41\u0d1f\u0d3f", "network": "IR", "operator": "Indian Railways", "public_transport": "station", "railway": "station", "ref": "CKI", "train": "yes", "wheelchair": "yes", "wikidata": "Q5068548", "wikipedia": "en:Chalakudi railway station"}, "geometry": {"type": "Point", "coordinates": [76.321561, 10.3023854]}, "id": "node/344463079"}, {"type": "Feature", "properties": {"@id": "node/347138797", "internet_access": "no", "name": "Khar Road", "name:en": "Khar Road", "name:hi": "\u0916\u093e\u0930 \u0930\u094b\u0921", "name:mr": "\u0916\u093e\u0930 \u0930\u094b\u0921", "network": "Mumbai Suburban Railway", "network:wikidata": "Q3273422", "operator": "WR", "public_transport": "station", "railway": "station", "ref": "KHAR", "start_date": "1924-07-01", "train": "yes", "wikidata": "Q372596", "wikipedia": "en:Khar Road railway station"}, "geometry": {"type": "Point", "coordinates": [72.8400412, 19.0682411]}, "id": "node/347138797"}, {"type": "Feature", "properties": {"@id": "node/348490338", "IR:div": "HWH", "IR:stn_cat": "SG-3", "IR:zone": "ER", "name": "Tarakeswar", "network": "IR", "operator": "ER", "public_transport": "station", "railway": "station", "ref": "TAK", "wikidata": "Q16901187", "wikipedia": "en:Tarakeswar railway station"}, "geometry": {"type": "Point", "coordinates": [88.0142006, 22.8823987]}, "id": "node/348490338"}, {"type": "Feature", "properties": {"@id": "node/353002120", "internet_access": "no", "name": "Kuzhiturai", "name:ml": "\u0d15\u0d41\u0d34\u0d3f\u0d24\u0d4d\u0d24\u0d41\u0d31", "name:ta": "\u0b95\u0bc1\u0bb4\u0bbf\u0ba4\u0bcd\u0ba4\u0bc1\u0bb1\u0bc8", "network": "IR", "operator": "SR", "public_transport": "station", "railway": "station", "ref": "KZT", "wikidata": "Q20718017", "wikimedia_commons": "File:\u0b95\u0bc1\u0bb4\u0bbf\u0ba4\u0bcd\u0ba4\u0bc1\u0bb1\u0bc8_\u0ba4\u0bca\u0b9f\u0bb0\u0bc1\u0ba8\u0bcd\u0ba4\u0bc1_\u0ba8\u0bbf\u0bb2\u0bc8\u0baf\u0bae\u0bcd.jpg", "wikipedia": "en:Kuzhithurai railway station"}, "geometry": {"type": "Point", "coordinates": [77.2186619, 8.3013061]}, "id": "node/353002120"}, {"type": "Feature", "properties": {"@id": "node/353002292", "internet_access": "wlan", "name": "Nagercoil Junction", "name:ml": "\u0d28\u0d3e\u0d17\u0d7c\u0d15\u0d4b\u0d35\u0d3f\u0d7d \u0d1c\u0d02\u0d17\u0d4d\u0d37\u0d7b", "name:ta": "\u0ba8\u0bbe\u0b95\u0bb0\u0bcd\u0b95\u0bc7\u0bbe\u0bb5\u0bbf\u0bb2\u0bcd \u0b9a\u0ba8\u0bcd\u0ba4\u0bbf\u0baa\u0bcd\u0baa\u0bc1", "network": "IR", "operator": "SR", "public_transport": "station", "railway": "station", "ref": "NCJ", "wikidata": "Q6958774", "wikimedia_commons": "File:Nagercoil_Junction_Railway_Station.JPG", "wikipedia": "en:Nagercoil Junction railway station"}, "geometry": {"type": "Point", "coordinates": [77.4438789, 8.174535]}, "id": "node/353002292"}, {"type": "Feature", "properties": {"@id": "node/353002340", "internet_access": "no", "name": "Aralvaymozhi", "network": "IR", "operator": "SR", "public_transport": "station", "railway": "station", "ref": "AAY", "wikidata": "Q63357747"}, "geometry": {"type": "Point", "coordinates": [77.5279284, 8.2483557]}, "id": "node/353002340"}, {"type": "Feature", "properties": {"@id": "node/353002398", "internet_access": "no", "name": "N. Panakudi", "network": "IR", "operator": "SR", "public_transport": "station", "railway": "station", "ref": "NPK", "train": "yes", "wikidata": "Q63356798"}, "geometry": {"type": "Point", "coordinates": [77.5814273, 8.3146578]}, "id": "node/353002398"}, {"type": "Feature", "properties": {"@id": "node/353002619", "internet_access": "no", "name": "Nanguneri", "name:ta": "\u0ba8\u0bbe\u0b99\u0bcd\u0b95\u0bc1\u0ba8\u0bc7\u0bb0\u0bbf", "network": "IR", "operator": "SR", "public_transport": "station", "railway": "station", "ref": "NNN", "wikidata": "Q63356824"}, "geometry": {"type": "Point", "coordinates": [77.6632221, 8.4898391]}, "id": "node/353002619"}, {"type": "Feature", "properties": {"@id": "node/353052107", "internet_access": "no", "name": "Kadayanallur", "network": "IR", "operator": "SR", "public_transport": "station", "railway": "station", "ref": "KDNL", "wikidata": "Q31298143"}, "geometry": {"type": "Point", "coordinates": [77.3629798, 9.0856852]}, "id": "node/353052107"}, {"type": "Feature", "properties": {"@id": "node/355747666", "internet_access": "no", "name": "Bhildi Junction", "network": "IR", "operator": "WR", "public_transport": "station", "railway": "station", "ref": "BLDI", "train": "yes", "wikidata": "Q25549348", "wikipedia": "en:Bhildi Junction railway station"}, "geometry": {"type": "Point", "coordinates": [72.0093403, 24.1944244]}, "id": "node/355747666"}, {"type": "Feature", "properties": {"@id": "node/358800211", "internet_access": "no", "name": "Dharmapuri", "name:ta": "\u0ba4\u0bb0\u0bcd\u0bae\u0baa\u0bc1\u0bb0\u0bbf", "network": "IR", "operator": "SWR", "public_transport": "station", "railway": "station", "ref": "DPJ", "wikidata": "Q15213879", "wikipedia": "en:Dharmapuri railway station"}, "geometry": {"type": "Point", "coordinates": [78.154221, 12.1258613]}, "id": "node/358800211"}, {"type": "Feature", "properties": {"@id": "node/367460634", "internet_access": "no", "name": "Hosur", "name:kn": "\u0cb9\u0cca\u0cb8\u0cc2\u0cb0\u0cc1", "name:ta": "\u0b93\u0b9a\u0bc2\u0bb0\u0bcd", "network": "IR", "operator": "SWR", "railway": "station", "ref": "HSRA", "wheelchair": "yes", "wikidata": "Q15225754", "wikipedia": "en:Hosur railway station"}, "geometry": {"type": "Point", "coordinates": [77.8229481, 12.7183361]}, "id": "node/367460634"}, {"type": "Feature", "properties": {"@id": "node/367462102", "internet_access": "no", "name": "Rayakkottai", "name:kn": "\u0cb0\u0cbe\u0caf\u0c95\u0ccb\u0c9f\u0cc6", "name:ta": "\u0b87\u0bb0\u0bbe\u0baf\u0b95\u0bcd\u0b95\u0bcb\u0b9f\u0bcd\u0b9f\u0bc8", "network": "IR", "operator": "SWR", "railway": "station", "ref": "RYC", "wikidata": "Q23748829", "wikipedia": "en:Rayakottai railway station"}, "geometry": {"type": "Point", "coordinates": [78.027275, 12.5145014]}, "id": "node/367462102"}, {"type": "Feature", "properties": {"@id": "node/367556529", "internet_access": "no", "name": "Pugalur", "network": "IR", "operator": "SR", "public_transport": "station", "railway": "station", "ref": "PGR", "wikidata": "Q63356841"}, "geometry": {"type": "Point", "coordinates": [77.9916143, 11.0514132]}, "id": "node/367556529"}, {"type": "Feature", "properties": {"@id": "node/367556637", "alt_name": "Karur Junction", "internet_access": "wlan", "name": "Karur Junction", "name:ml": "\u0d15\u0d30\u0d42\u0d7c \u0d1c\u0d02\u0d17\u0d4d\u0d37\u0d7b", "name:ta": "\u0b95\u0bb0\u0bc2\u0bb0\u0bcd \u0b9a\u0ba8\u0bcd\u0ba4\u0bbf\u0baa\u0bcd\u0baa\u0bc1", "network": "IR", "operator": "SR", "platforms": "5", "public_transport": "station", "railway": "station", "ref": "KRR", "wikidata": "Q18126624", "wikipedia": "en:Karur Junction railway station"}, "geometry": {"type": "Point", "coordinates": [78.0849562, 10.9658076]}, "id": "node/367556637"}, {"type": "Feature", "properties": {"@id": "node/367612325", "internet_access": "no", "name": "Palayam.I", "name:ta": "\u0baa\u0bbe\u0bb3\u0bc8\u0baf\u0bae\u0bcd", "network": "IR", "operator": "SR", "public_transport": "station", "railway": "station", "ref": "PALM", "wikidata": "Q55628428"}, "geometry": {"type": "Point", "coordinates": [78.1292088, 10.7188161]}, "id": "node/367612325"}, {"type": "Feature", "properties": {"@id": "node/367638256", "internet_access": "no", "name": "Caranzol", "name:kn": "\u0c95\u0cbe\u0cb0\u0ca8\u0ccd\u0c9c\u0cca\u0cb2\u0ccd", "network": "IR", "operator": "SWR", "railway": "station", "ref": "CRZ", "wikidata": "Q29026338", "wikipedia": "en:Caranzol railway station"}, "geometry": {"type": "Point", "coordinates": [74.3061046, 15.3603725]}, "id": "node/367638256"}, {"type": "Feature", "properties": {"@id": "node/367638561", "alt_name": "Dudh Sagar", "internet_access": "no", "name": "Dudhsagar", "name:kn": "\u0ca6\u0cc2\u0ca6\u0cb8\u0cbe\u0c97\u0cb0", "network": "IR", "operator": "SWR", "railway": "station", "ref": "DDS", "source": "GPS", "wikidata": "Q29026335", "wikipedia": "en:Dudh Sagar railway station"}, "geometry": {"type": "Point", "coordinates": [74.3063621, 15.3165303]}, "id": "node/367638561"}, {"type": "Feature", "properties": {"@id": "node/367666445", "internet_access": "no", "name": "Omalur Junction", "name:ta": "\u0b93\u0bae\u0bb2\u0bc2\u0bb0\u0bcd", "network": "IR", "operator": "SR", "public_transport": "station", "railway": "station", "ref": "OML", "wikidata": "Q18128961", "wikipedia": "en:Omalur Junction railway station"}, "geometry": {"type": "Point", "coordinates": [78.0449299, 11.7382934]}, "id": "node/367666445"}, {"type": "Feature", "properties": {"@id": "node/386483233", "internet_access": "no", "name": "Chikhale", "network": "IR", "operator": "CR", "public_transport": "station", "railway": "station", "ref": "CKHS", "train": "yes", "wikidata": "Q63361144"}, "geometry": {"type": "Point", "coordinates": [73.151941, 18.9737547]}, "id": "node/386483233"}, {"type": "Feature", "properties": {"@id": "node/389475236", "internet_access": "no", "name": "Thondebhavi", "name:hi": "\u0924\u094b\u0928\u094d\u0921\u0947 \u092d\u093e\u0935\u0940", "name:kn": "\u0cb0\u0cc8\u0cb2\u0cc1 \u0ca8\u0cbf\u0cb2\u0ccd\u0ca6\u0cbe\u0ca3", "network": "IR", "operator": "SWR", "public_transport": "station", "railway": "station", "ref": "TDV", "wikidata": "Q63369746"}, "geometry": {"type": "Point", "coordinates": [77.5149549, 13.503993]}, "id": "node/389475236"}, {"type": "Feature", "properties": {"@id": "node/389475284", "internet_access": "no", "name": "Devarapalli", "name:kn": "\u0ca6\u0cc7\u0cb5\u0cb0\u0caa\u0cb2\u0ccd\u0cb2\u0cc6", "network": "IR", "operator": "SWR", "public_transport": "station", "railway": "station", "ref": "DPE", "wikidata": "Q63369740"}, "geometry": {"type": "Point", "coordinates": [77.5119477, 13.7232336]}, "id": "node/389475284"}, {"type": "Feature", "properties": {"@id": "node/389475324", "internet_access": "no", "name": "Malugur", "name:hi": "\u092e\u0932\u0941\u0917\u0942\u0930", "network": "IR", "operator": "SWR", "public_transport": "station", "railway": "station", "ref": "MLU", "train": "yes", "wikidata": "Q63369738"}, "geometry": {"type": "Point", "coordinates": [77.5416645, 13.8917927]}, "id": "node/389475324"}, {"type": "Feature", "properties": {"@id": "node/389475369", "internet_access": "no", "name": "Penukonda Junction", "network": "IR", "operator": "SWR", "railway": "station", "ref": "PKD", "wikidata": "Q19882238", "wikipedia": "en:Penukonda Junction railway station"}, "geometry": {"type": "Point", "coordinates": [77.5945804, 14.1000661]}, "id": "node/389475369"}, {"type": "Feature", "properties": {"@id": "node/389475413", "internet_access": "no", "name": "Hirehalli", "name:kn": "\u0cb9\u0cbf\u0cb0\u0cc7\u0cb9\u0cb3\u0ccd\u0cb3\u0cbf", "network": "IR", "operator": "SWR", "public_transport": "station", "railway": "station", "ref": "HHL", "wikidata": "Q63356354"}, "geometry": {"type": "Point", "coordinates": [77.1887827, 13.2806649]}, "id": "node/389475413"}, {"type": "Feature", "properties": {"@id": "node/389475419", "internet_access": "no", "name": "Kyatsandra", "name:kn": "\u0c95\u0ccd\u0caf\u0cbe\u0ca4\u0cb8\u0c82\u0ca6\u0ccd\u0cb0", "network": "IR", "operator": "SWR", "public_transport": "station", "railway": "station", "ref": "KIAT", "wikidata": "Q63355141"}, "geometry": {"type": "Point", "coordinates": [77.147748, 13.3156102]}, "id": "node/389475419"}, {"type": "Feature", "properties": {"@id": "node/391345820", "internet_access": "no", "name": "Bardoli", "network": "IR", "operator": "WR", "public_transport": "station", "railway": "station", "ref": "BIY", "train": "yes", "wikidata": "Q25549184"}, "geometry": {"type": "Point", "coordinates": [73.1053896, 21.1338291]}, "id": "node/391345820"}, {"type": "Feature", "properties": {"@id": "node/414782961", "internet_access": "no", "name": "Surat", "name:ar": "\u0633\u0648\u0631\u062a", "name:arz": "\u0633\u0648\u0631\u062a", "name:azb": "\u0633\u0648\u0631\u0627\u062a", "name:de": "Surat", "name:es": "Surat", "name:fa": "\u0633\u0648\u0631\u062a", "name:fr": "Surate", "name:hi": "\u0938\u0942\u0930\u0924", "name:ks": "\u0633\u0648\u0631\u062a", "name:pa": "\u0a38\u0a42\u0a30\u0a24", "name:pnb": "\u0633\u0648\u0631\u062a", "name:sr": "\u0421\u0443\u0440\u0430\u0442", "name:tt": "\u0421\u0443\u0440\u0430\u0442", "name:ur": "\u0633\u0648\u0631\u062a", "network": "IR", "operator": "WR", "public_transport": "station", "railway": "station", "ref": "ST", "train": "yes", "wikidata": "Q1851275"}, "geometry": {"type": "Point", "coordinates": [72.8407427, 21.2050293]}, "id": "node/414782961"}, {"type": "Feature", "properties": {"@id": "node/414849419", "internet_access": "no", "name": "Madhi", "network": "IR", "operator": "WR", "public_transport": "station", "railway": "station", "ref": "MID", "train": "yes", "wikidata": "Q63371624"}, "geometry": {"type": "Point", "coordinates": [73.2424025, 21.1457123]}, "id": "node/414849419"}, {"type": "Feature", "properties": {"@id": "node/431201162", "name": "Parassala", "name:ml": "\u0d2a\u0d3e\u0d31\u0d36\u0d4d\u0d36\u0d3e\u0d32", "name:ta": "\u0baa\u0bbe\u0bb1\u0b9a\u0bbe\u0bb2\u0bc8", "network": "IR", "operator": "SR", "public_transport": "station", "railway": "station", "ref": "PASA", "train": "yes", "wikidata": "Q20718094", "wikipedia": "en:Parassala railway station"}, "geometry": {"type": "Point", "coordinates": [77.165665, 8.3397236]}, "id": "node/431201162"}, {"type": "Feature", "properties": {"@id": "node/443807288", "internet_access": "no", "name": "Banaswadi", "name:hi": "\u092c\u093e\u0928\u0938\u0935\u093e\u0921\u093c\u0940", "name:kn": "\u0cac\u0cbe\u0ca3\u0cb8\u0cb5\u0cbe\u0ca1\u0cbf", "network": "IR", "operator": "SWR", "public_transport": "station", "railway": "station", "ref": "BAND", "wheelchair": "no", "wikidata": "Q58814851"}, "geometry": {"type": "Point", "coordinates": [77.6281321, 13.0058357]}, "id": "node/443807288"}, {"type": "Feature", "properties": {"@id": "node/443811552", "internet_access": "no", "name": "Channasandra", "name:kn": "\u0c9a\u0ca8\u0ccd\u0ca8\u0cb8\u0c82\u0ca6\u0ccd\u0cb0", "name:ml": "\u0d1a\u0d28\u0d4d\u0d28\u0d38\u0d28\u0d4d\u0d26\u0d4d\u0d30", "network": "IR", "operator": "SWR", "public_transport": "station", "railway": "station", "ref": "CSDR", "wikidata": "Q63354822"}, "geometry": {"type": "Point", "coordinates": [77.6628136, 13.0118566]}, "id": "node/443811552"}, {"type": "Feature", "properties": {"@id": "node/448146952", "internet_access": "no", "name": "Nandol Dahegam", "network": "IR", "operator": "WR", "public_transport": "station", "railway": "station", "ref": "NHM", "train": "yes", "wikidata": "Q63356800"}, "geometry": {"type": "Point", "coordinates": [72.8161565, 23.1734296]}, "id": "node/448146952"}, {"type": "Feature", "properties": {"@id": "node/506280911", "internet_access": "no", "name": "Malavli", "name:en": "Malavli", "name:mr": "\u092e\u0933\u0935\u0932\u0940", "network": "IR", "operator": "CR", "public_transport": "station", "railway": "station", "ref": "MVL", "train": "yes", "wikidata": "Q15244125", "wikipedia": "en:Malavli railway station"}, "geometry": {"type": "Point", "coordinates": [73.4801637, 18.7442145]}, "id": "node/506280911"}, {"type": "Feature", "properties": {"@id": "node/506820143", "internet_access": "no", "name": "Chiplun", "name:ja": "\u30c1\u30d7\u30eb\u30fc\u30f3", "network": "IR", "operator": "KR", "public_transport": "station", "railway": "station", "ref": "CHI", "train": "yes", "wikidata": "Q19805686", "wikipedia": "en:Chiplun railway station"}, "geometry": {"type": "Point", "coordinates": [73.522233, 17.5423529]}, "id": "node/506820143"}, {"type": "Feature", "properties": {"@id": "node/506820192", "internet_access": "no", "name": "Khed", "network": "IR", "operator": "KR", "public_transport": "station", "railway": "station", "ref": "KHED", "train": "yes", "wikidata": "Q21040760", "wikipedia": "en:Khed railway station"}, "geometry": {"type": "Point", "coordinates": [73.4106638, 17.7125696]}, "id": "node/506820192"}, {"type": "Feature", "properties": {"@id": "node/506820481", "internet_access": "no", "name": "Apta", "network": "IR", "operator": "CR", "public_transport": "station", "railway": "station", "ref": "APTA", "train": "yes", "wikidata": "Q15183967", "wikipedia": "en:Apta railway station"}, "geometry": {"type": "Point", "coordinates": [73.1532989, 18.8637081]}, "id": "node/506820481"}, {"type": "Feature", "properties": {"@id": "node/521573847", "internet_access": "no", "name": "Bhawani Mandi", "network": "IR", "operator": "WCR", "public_transport": "station", "railway": "station", "ref": "BWM", "train": "yes", "wikidata": "Q24945136", "wikipedia": "en:Bhawani Mandi railway station"}, "geometry": {"type": "Point", "coordinates": [75.8302837, 24.4192876]}, "id": "node/521573847"}, {"type": "Feature", "properties": {"@id": "node/529961817", "internet_access": "no", "name": "Vaitarna", "name:hi": "\u0935\u0948\u0924\u0930\u0928\u093e", "name:mr": "\u0935\u0948\u0924\u0930\u0923\u093e", "network": "Mumbai Suburban Railway", "network:wikidata": "Q3273422", "operator": "WR", "public_transport": "station", "railway": "station", "ref": "VTN", "train": "yes", "wikidata": "Q7908888", "wikipedia": "en:Vaitarna railway station"}, "geometry": {"type": "Point", "coordinates": [72.8499772, 19.5186517]}, "id": "node/529961817"}, {"type": "Feature", "properties": {"@id": "node/529961821", "internet_access": "no", "name": "Saphale", "name:hi": "\u0938\u092b\u093e\u0932\u0947", "name:mr": "\u0938\u092b\u093e\u0933\u0947", "network": "Mumbai Suburban Railway", "network:wikidata": "Q3273422", "operator": "WR", "public_transport": "station", "railway": "station", "ref": "SAH", "train": "yes", "wikidata": "Q7420951", "wikipedia": "en:Saphale Railway Station"}, "geometry": {"type": "Point", "coordinates": [72.8218812, 19.5771316]}, "id": "node/529961821"}, {"type": "Feature", "properties": {"@id": "node/533754608", "internet_access": "no", "name": "Khandala", "name:en": "Khandala", "name:hi": "\u0916\u0902\u0921\u093e\u0932\u093e", "name:mr": "\u0916\u0902\u0921\u093e\u0933\u093e \u092c\u094b\u0917\u0926\u093e", "network": "IR", "operator": "CR", "public_transport": "station", "railway": "station", "ref": "KAD", "train": "yes", "wikidata": "Q17064864", "wikipedia": "en:Khandala railway station"}, "geometry": {"type": "Point", "coordinates": [73.3767092, 18.7548469]}, "id": "node/533754608"}, {"type": "Feature", "properties": {"@id": "node/553051322", "internet_access": "no", "name": "Chamarajapuram", "name:kn": "\u0c9a\u0cbe\u0cae\u0cb0\u0cbe\u0c9c\u0caa\u0cc1\u0cb0\u0c82", "network": "IR", "operator": "SWR", "railway": "station", "ref": "CMJ", "wikidata": "Q28154071", "wikipedia": "en:Chamarajapuram railway station"}, "geometry": {"type": "Point", "coordinates": [76.6378623, 12.2981544]}, "id": "node/553051322"}, {"type": "Feature", "properties": {"@id": "node/560706957", "historic:ref": "INDM", "internet_access": "no", "name": "Indore Junction", "name:hi": "\u0907\u0902\u0926\u094c\u0930 \u091c\u0902\u0915\u094d\u0936\u0928", "name:ur": "\u0627\u0646\u062f\u0648\u0631 \u062c\u0646\u06a9\u0634\u0646", "network": "IR", "operator": "WR", "public_transport": "station", "railway": "station", "ref": "INDB", "train": "yes", "wikidata": "Q6026562"}, "geometry": {"type": "Point", "coordinates": [75.8684722, 22.7170064]}, "id": "node/560706957"}, {"type": "Feature", "properties": {"@id": "node/566141537", "IR:zone": "SER:CKP", "internet_access": "no", "name": "Gamharia Jn.", "network": "IR", "operator": "SER", "public_transport": "station", "railway": "station", "ref": "GMH", "wikidata": "Q63370301"}, "geometry": {"type": "Point", "coordinates": [86.1011327, 22.7965697]}, "id": "node/566141537"}, {"type": "Feature", "properties": {"@id": "node/566222693", "internet_access": "no", "name": "Asarva", "network": "IR", "operator": "WR", "public_transport": "station", "railway": "station", "ref": "ASV", "train": "yes", "wikidata": "Q24949933"}, "geometry": {"type": "Point", "coordinates": [72.6132157, 23.0440925]}, "id": "node/566222693"}, {"type": "Feature", "properties": {"@id": "node/566223451", "internet_access": "no", "name": "Sardargram", "network": "IR", "operator": "WR", "public_transport": "station", "railway": "station", "ref": "SDGM", "train": "yes", "wikidata": "Q63357017"}, "geometry": {"type": "Point", "coordinates": [72.6424393, 23.0715012]}, "id": "node/566223451"}, {"type": "Feature", "properties": {"@id": "node/566226583", "internet_access": "no", "name": "Dabhoda", "network": "IR", "operator": "WR", "public_transport": "station", "railway": "station", "ref": "DBO", "train": "yes", "wikidata": "Q63354824"}, "geometry": {"type": "Point", "coordinates": [72.7435768, 23.1647156]}, "id": "node/566226583"}, {"type": "Feature", "properties": {"@id": "node/566228737", "internet_access": "no", "name": "Rakhiyal", "network": "IR", "operator": "WR", "public_transport": "station", "railway": "station", "ref": "RKH", "train": "yes", "wikidata": "Q63355444"}, "geometry": {"type": "Point", "coordinates": [72.8994569, 23.2541891]}, "id": "node/566228737"}, {"type": "Feature", "properties": {"@id": "node/566229649", "internet_access": "no", "name": "Talod", "network": "IR", "operator": "WR", "public_transport": "station", "railway": "station", "ref": "TOD", "train": "yes", "wikidata": "Q63357204"}, "geometry": {"type": "Point", "coordinates": [72.9477713, 23.3513439]}, "id": "node/566229649"}, {"type": "Feature", "properties": {"@id": "node/566232038", "internet_access": "no", "name": "Prantij", "network": "IR", "operator": "WR", "public_transport": "station", "railway": "station", "ref": "PRJ", "train": "yes", "wikidata": "Q63355384"}, "geometry": {"type": "Point", "coordinates": [72.8664235, 23.4304431]}, "id": "node/566232038"}, {"type": "Feature", "properties": {"@id": "node/566235384", "internet_access": "no", "name": "Sonasan", "network": "IR", "operator": "WR", "public_transport": "station", "railway": "station", "ref": "SNSN", "train": "yes", "wikidata": "Q62005751"}, "geometry": {"type": "Point", "coordinates": [72.8940932, 23.4884484]}, "id": "node/566235384"}, {"type": "Feature", "properties": {"@id": "node/566240551", "internet_access": "no", "name": "Raigadh Road", "network": "IR", "operator": "NWR", "public_transport": "station", "railway": "station", "ref": "RGQ", "train": "yes", "wikidata": "Q63354956", "wikipedia": "en:Raigadh Road railway station"}, "geometry": {"type": "Point", "coordinates": [73.1840575, 23.5972352]}, "id": "node/566240551"}, {"type": "Feature", "properties": {"@id": "node/566240929", "internet_access": "no", "name": "Shamlaji Road", "network": "IR", "operator": "NWR", "public_transport": "station", "railway": "station", "ref": "SJS", "train": "yes", "wikidata": "Q63357038"}, "geometry": {"type": "Point", "coordinates": [73.3426997, 23.6344945]}, "id": "node/566240929"}, {"type": "Feature", "properties": {"@id": "node/566242191", "internet_access": "no", "name": "Lusadiya", "network": "IR", "operator": "NWR", "public_transport": "station", "railway": "station", "ref": "LSD", "train": "yes", "wikidata": "Q63357474"}, "geometry": {"type": "Point", "coordinates": [73.4209559, 23.6856342]}, "id": "node/566242191"}, {"type": "Feature", "properties": {"@id": "node/566247524", "internet_access": "no", "name": "Jagabor", "network": "IR", "operator": "NWR", "public_transport": "station", "railway": "station", "ref": "JO", "train": "yes", "wikidata": "Q63369201"}, "geometry": {"type": "Point", "coordinates": [73.453782, 23.7402458]}, "id": "node/566247524"}, {"type": "Feature", "properties": {"@id": "node/566248643", "internet_access": "no", "name": "Bechhiwara", "network": "IR", "operator": "NWR", "public_transport": "station", "railway": "station", "ref": "BHWA", "train": "yes", "wikidata": "Q63357670"}, "geometry": {"type": "Point", "coordinates": [73.5351876, 23.7878716]}, "id": "node/566248643"}, {"type": "Feature", "properties": {"@id": "node/566252897", "internet_access": "no", "name": "Shri Bhavnath", "network": "IR", "operator": "NWR", "public_transport": "station", "railway": "station", "ref": "SBHN", "train": "yes", "wikidata": "Q87468116"}, "geometry": {"type": "Point", "coordinates": [73.5853022, 23.8143897]}, "id": "node/566252897"}, {"type": "Feature", "properties": {"@id": "node/569908364", "internet_access": "no", "name": "Kendrapara Road", "network": "IR", "operator": "ECoR", "public_transport": "station", "railway": "station", "ref": "KNPR", "train": "yes", "wikidata": "Q63371866", "wikipedia": "en:Kendrapara Road railway station"}, "geometry": {"type": "Point", "coordinates": [85.9178107, 20.4985117]}, "id": "node/569908364"}, {"type": "Feature", "properties": {"@id": "node/571578291", "internet_access": "no", "name": "Padubidri", "name:kn": "\u0caa\u0cbe\u0ca6\u0cc6\u0cac\u0cc6\u0c9f\u0ccd\u0c9f\u0cc1", "network": "IR", "operator": "KR", "platforms": "2", "public_transport": "station", "railway": "station", "ref": "PDD", "train": "yes", "wikidata": "Q25573864", "wikipedia": "en:Padubidri railway station"}, "geometry": {"type": "Point", "coordinates": [74.7680651, 13.1969885]}, "id": "node/571578291"}, {"type": "Feature", "properties": {"@id": "node/571579127", "internet_access": "no", "name": "Bhatkal", "name:hi": "\u092d\u091f\u0915\u0932", "name:kn": "\u0cad\u0c9f\u0ccd\u0c95\u0cb3", "network": "IR", "operator": "KR", "platforms": "2", "public_transport": "station", "railway": "station", "ref": "BTJL", "train": "yes", "wikidata": "Q25549324", "wikipedia": "en:Bhatkal railway station"}, "geometry": {"type": "Point", "coordinates": [74.5656301, 13.9893566]}, "id": "node/571579127"}, {"type": "Feature", "properties": {"@id": "node/571579771", "designation": "KAWR", "internet_access": "no", "name": "Karwar", "name:ja": "\u30ab\u30fc\u30eb\u30ef\u30fc\u30eb", "name:kn": "\u0c95\u0cbe\u0cb0\u0cb5\u0cbe\u0cb0", "network": "IR", "operator": "KR", "platforms": "2", "public_transport": "station", "railway": "station", "ref": "KAWR", "train": "yes", "wikidata": "Q24948095", "wikipedia": "en:Karwar railway station"}, "geometry": {"type": "Point", "coordinates": [74.1825906, 14.8202478]}, "id": "node/571579771"}, {"type": "Feature", "properties": {"@id": "node/571580159", "internet_access": "no", "name": "Karmali", "name:hi": "\u0915\u0930\u092e\u0932\u0940", "name:mr": "\u0915\u0930\u092e\u0933\u0940", "network": "IR", "operator": "KR", "public_transport": "station", "railway": "station", "ref": "KRMI", "train": "yes", "wikidata": "Q25573786", "wikipedia": "en:Karmali railway station"}, "geometry": {"type": "Point", "coordinates": [73.9245522, 15.4904538]}, "id": "node/571580159"}, {"type": "Feature", "properties": {"@id": "node/571749457", "internet_access": "no", "name": "Roha", "name:hi": "\u0930\u094b\u0939\u093e", "name:mr": "\u0930\u094b\u0939\u093e", "network": "IR", "operator": "CR", "public_transport": "station", "railway": "station", "ref": "ROHA", "train": "yes", "wikidata": "Q15272988", "wikipedia": "en:Roha railway station"}, "geometry": {"type": "Point", "coordinates": [73.1238722, 18.44658]}, "id": "node/571749457"}, {"type": "Feature", "properties": {"@id": "node/577489912", "internet_access": "no", "name": "Kalaikunda", "network": "IR", "operator": "SER", "public_transport": "station", "railway": "station", "ref": "KKQ", "wikidata": "Q59871493"}, "geometry": {"type": "Point", "coordinates": [87.2448777, 22.3296296]}, "id": "node/577489912"}, {"type": "Feature", "properties": {"@id": "node/577490057", "GNS:dsg_code": "RSTN", "GNS:dsg_string": "railroad station", "GNS:id": "14353553", "GNS:uni": "18541534", "IR:zone": "SER:CKP", "internet_access": "no", "name": "Sini Junction", "name:en": "Sini Junction", "network": "IR", "operator": "SER", "public_transport": "station", "railway": "station", "ref": "SINI", "source:GNSdata": "geonames.nga.mil(GNS)-country file (20210809)", "wikidata": "Q63369503"}, "geometry": {"type": "Point", "coordinates": [85.946823, 22.7891015]}, "id": "node/577490057"}, {"type": "Feature", "properties": {"@id": "node/582437498", "internet_access": "no", "name": "Belagavi", "name:kn": "\u0cac\u0cc6\u0cb3\u0c97\u0cbe\u0cb5\u0cbf", "network": "IR", "operator": "SWR", "public_transport": "station", "railway": "station", "ref": "BGM", "wikidata": "Q19891746"}, "geometry": {"type": "Point", "coordinates": [74.5089431, 15.8490568]}, "id": "node/582437498"}, {"type": "Feature", "properties": {"@id": "node/600364202", "internet_access": "no", "name": "Siddampalli", "name:hi": "\u0938\u093f\u0926\u0926\u0902\u092a\u0932\u094d\u0932\u093f", "name:te": "\u0c38\u0c3f\u0c26\u0c4d\u0c26\u0c02\u0c2a\u0c32\u0c4d\u0c32\u0c3f", "network": "IR", "operator": "SCR", "public_transport": "station", "railway": "station", "ref": "SIE", "wikidata": "Q63369913"}, "geometry": {"type": "Point", "coordinates": [79.1371192, 13.1598669]}, "id": "node/600364202"}, {"type": "Feature", "properties": {"@id": "node/600364313", "internet_access": "no", "name": "Pakala Junction", "network": "IR", "operator": "SCR", "railway": "station", "ref": "PAK", "wikidata": "Q19891650", "wikipedia": "en:Pakala Junction railway station"}, "geometry": {"type": "Point", "coordinates": [79.1145053, 13.4509043]}, "id": "node/600364313"}, {"type": "Feature", "properties": {"@id": "node/600393279", "historic:ref": "ROPN", "internet_access": "no", "name": "Rupsa Junction", "network": "IR", "operator": "SER", "public_transport": "station", "railway": "station", "ref": "ROP", "train": "yes", "wikidata": "Q63370353", "wikipedia": "en:Rupsa Junction railway station"}, "geometry": {"type": "Point", "coordinates": [87.018874, 21.6223651]}, "id": "node/600393279"}, {"type": "Feature", "properties": {"@id": "node/600393296", "internet_access": "no", "name": "Jaleswar", "network": "IR", "operator": "SER", "public_transport": "station", "railway": "station", "ref": "JER", "train": "yes", "wikidata": "Q31297211", "wikipedia": "en:Jaleswar railway station"}, "geometry": {"type": "Point", "coordinates": [87.2200637, 21.7976371]}, "id": "node/600393296"}, {"type": "Feature", "properties": {"@id": "node/600395018", "internet_access": "no", "name": "Sora", "network": "IR", "operator": "SER", "public_transport": "station", "railway": "station", "ref": "SORO", "train": "yes", "wikidata": "Q63370346", "wikipedia": "en:Soro railway station"}, "geometry": {"type": "Point", "coordinates": [86.6923513, 21.2911418]}, "id": "node/600395018"}, {"type": "Feature", "properties": {"@id": "node/600399581", "internet_access": "no", "name": "Bhadrak Junction", "network": "IR", "operator": "ECoR", "public_transport": "station", "railway": "station", "ref": "BHC", "train": "yes", "wikidata": "Q24929998", "wikimedia_commons": "File:Bhadrak railway station at Bhadrak, Odisha 15.jpg", "wikipedia": "en:Bhadrak railway station"}, "geometry": {"type": "Point", "coordinates": [86.5165421, 21.0909064]}, "id": "node/600399581"}, {"type": "Feature", "properties": {"@id": "node/600418711", "internet_access": "no", "name": "Jakhapura Junction", "network": "IR", "operator": "ECoR", "public_transport": "station", "railway": "station", "ref": "JKPR", "train": "yes", "wikidata": "Q63370332", "wikipedia": "en:Jakhapura Junction railway station"}, "geometry": {"type": "Point", "coordinates": [86.0647151, 20.9162794]}, "id": "node/600418711"}, {"type": "Feature", "properties": {"@id": "node/600643762", "internet_access": "no", "name": "Jajpur Keonjhar Road Junction", "network": "IR", "operator": "ECoR", "public_transport": "station", "railway": "station", "ref": "JJKR", "train": "yes", "wikidata": "Q21593132", "wikipedia": "en:Jajpur Keonjhar Road railway station"}, "geometry": {"type": "Point", "coordinates": [86.133103, 20.9435669]}, "id": "node/600643762"}, {"type": "Feature", "properties": {"@id": "node/600644263", "internet_access": "no", "name": "Byree", "network": "IR", "operator": "ECoR", "public_transport": "station", "railway": "station", "ref": "BYY", "train": "yes", "wikidata": "Q63370322", "wikipedia": "en:Byree railway station"}, "geometry": {"type": "Point", "coordinates": [86.0351983, 20.6284141]}, "id": "node/600644263"}, {"type": "Feature", "properties": {"@id": "node/600644273", "internet_access": "no", "name": "Dhanmandal", "network": "IR", "operator": "ECoR", "public_transport": "station", "railway": "station", "ref": "DNM", "train": "yes", "wikidata": "Q31293440", "wikipedia": "en:Dhanmandal railway station"}, "geometry": {"type": "Point", "coordinates": [86.1124226, 20.6868438]}, "id": "node/600644273"}, {"type": "Feature", "properties": {"@id": "node/600645253", "internet_access": "no", "name": "Narayangarh", "network": "IR", "operator": "SER", "public_transport": "station", "railway": "station", "ref": "NYA", "train": "yes", "wikidata": "Q60090213", "wikipedia": "en:Narayangarh railway station"}, "geometry": {"type": "Point", "coordinates": [87.3810303, 22.1738624]}, "id": "node/600645253"}, {"type": "Feature", "properties": {"@id": "node/600748572", "internet_access": "no", "name": "Vizianagaram Junction", "network": "IR", "operator": "ECoR", "public_transport": "station", "railway": "station", "ref": "VZM", "train": "yes", "wikidata": "Q7938021", "wikipedia": "en:Vizianagaram Junction railway station"}, "geometry": {"type": "Point", "coordinates": [83.396325, 18.1114637]}, "id": "node/600748572"}, {"type": "Feature", "properties": {"@id": "node/600756813", "internet_access": "no", "name": "Santragachi Junction", "network": "IR", "operator": "SER", "public_transport": "station", "railway": "station", "ref": "SRC", "train": "yes", "wikidata": "Q7420706", "wikipedia": "en:Santragachi Junction railway station"}, "geometry": {"type": "Point", "coordinates": [88.2830722, 22.5846995]}, "id": "node/600756813"}, {"type": "Feature", "properties": {"@id": "node/600807132", "alt_name": "Waltair", "internet_access": "wlan", "name": "Visakhapatnam", "name:ja": "\u30f4\u30a3\u30b7\u30e3\u30fc\u30ab\u30d1\u30c8\u30ca\u30e0", "name:te": "\u0c35\u0c3f\u0c36\u0c3e\u0c16\u0c2a\u0c1f\u0c4d\u0c28\u0c02", "network": "IR", "operator": "SCoR", "public_transport": "station", "railway": "station", "ref": "VSKP", "wikidata": "Q7935582", "wikimedia_commons": "Category:Visakhapatnam_Junction_railway_station", "wikipedia": "en:Visakhapatnam railway station"}, "geometry": {"type": "Point", "coordinates": [83.2906223, 17.7214305]}, "id": "node/600807132"}, {"type": "Feature", "properties": {"@id": "node/603241250", "internet_access": "no", "name": "Gadwal", "network": "IR", "operator": "SCR", "public_transport": "station", "railway": "station", "ref": "GWD", "wikidata": "Q15697690"}, "geometry": {"type": "Point", "coordinates": [77.809493, 16.2251954]}, "id": "node/603241250"}, {"type": "Feature", "properties": {"@id": "node/603465184", "internet_access": "no", "name": "Chigicherla", "network": "IR", "operator": "SCR", "public_transport": "station", "railway": "station", "ref": "CCA", "wikidata": "Q63369733"}, "geometry": {"type": "Point", "coordinates": [77.6840937, 14.5165673]}, "id": "node/603465184"}, {"type": "Feature", "properties": {"@id": "node/603465221", "internet_access": "no", "name": "Zangalapalli", "network": "IR", "operator": "SCR", "public_transport": "station", "railway": "station", "ref": "ZPL", "wikidata": "Q30623738"}, "geometry": {"type": "Point", "coordinates": [77.641803, 14.590082]}, "id": "node/603465221"}, {"type": "Feature", "properties": {"@id": "node/603465339", "internet_access": "no", "name": "Ramaraju Palli", "network": "IR", "operator": "SCR", "public_transport": "station", "railway": "station", "ref": "RRJ", "train": "yes", "wikidata": "Q63355470"}, "geometry": {"type": "Point", "coordinates": [77.6174948, 15.041212]}, "id": "node/603465339"}, {"type": "Feature", "properties": {"@id": "node/603465353", "internet_access": "no", "name": "Turkapalli", "network": "IR", "operator": "SCR", "public_transport": "station", "railway": "station", "ref": "TKPY", "wikidata": "Q63361338"}, "geometry": {"type": "Point", "coordinates": [77.6281369, 15.0872866]}, "id": "node/603465353"}, {"type": "Feature", "properties": {"@id": "node/603465385", "internet_access": "no", "name": "Gooty Junction", "name:en": "Gooty Junction", "name:hi": "\u0917\u0941\u0924\u094d\u0924\u0940 \u091c\u0902\u0915\u094d\u0936\u0928", "network": "IR", "operator": "SCR", "railway": "station", "ref": "GY", "wikidata": "Q19891648", "wikipedia": "en:Gooty Junction railway station"}, "geometry": {"type": "Point", "coordinates": [77.625239, 15.1495485]}, "id": "node/603465385"}, {"type": "Feature", "properties": {"@id": "node/603465403", "internet_access": "no", "name": "Pendekallu Junction", "network": "IR", "operator": "SCR", "public_transport": "station", "railway": "station", "ref": "PDL", "wikidata": "Q63355455"}, "geometry": {"type": "Point", "coordinates": [77.6485895, 15.3743039]}, "id": "node/603465403"}, {"type": "Feature", "properties": {"@id": "node/603465448", "internet_access": "no", "name": "Malliyala", "network": "IR", "operator": "SCR", "public_transport": "station", "railway": "station", "ref": "MYL", "train": "yes", "wikidata": "Q63356774"}, "geometry": {"type": "Point", "coordinates": [77.7753409, 15.3969207]}, "id": "node/603465448"}, {"type": "Feature", "properties": {"@id": "node/603465469", "internet_access": "no", "name": "Dhone Junction", "network": "IR", "operator": "SCR", "railway": "station", "ref": "DHNE", "wikidata": "Q19891646", "wikipedia": "en:Dhone Junction railway station"}, "geometry": {"type": "Point", "coordinates": [77.8680662, 15.3953323]}, "id": "node/603465469"}, {"type": "Feature", "properties": {"@id": "node/603465494", "internet_access": "no", "name": "Veldurti", "network": "IR", "operator": "SCR", "public_transport": "station", "railway": "station", "ref": "VDI", "train": "yes", "wikidata": "Q63371355"}, "geometry": {"type": "Point", "coordinates": [77.9274543, 15.5535593]}, "id": "node/603465494"}, {"type": "Feature", "properties": {"@id": "node/603465534", "internet_access": "no", "name": "Dupadu", "network": "IR", "operator": "SCR", "public_transport": "station", "railway": "station", "ref": "DUU", "toilets:wheelchair": "no", "train": "yes", "wheelchair": "limited", "wikidata": "Q63371357"}, "geometry": {"type": "Point", "coordinates": [78.0131055, 15.7429853]}, "id": "node/603465534"}, {"type": "Feature", "properties": {"@id": "node/603465550", "internet_access": "no", "name": "Kurnool City", "name:te": "\u0c15\u0c30\u0c4d\u0c28\u0c42\u0c32\u0c41 \u0c38\u0c3f\u0c1f\u0c40", "name:ur": "\u06a9\u0631\u0646\u0648\u0644 \u0633\u0679\u06cc", "network": "IR", "operator": "SCR", "public_transport": "station", "railway": "station", "ref": "KRNT", "train": "yes", "wikidata": "Q12420156", "wikipedia": "en:Kurnool City railway station"}, "geometry": {"type": "Point", "coordinates": [78.0326224, 15.8325993]}, "id": "node/603465550"}, {"type": "Feature", "properties": {"@id": "node/603465570", "internet_access": "no", "name": "Alampur Road", "network": "IR", "operator": "SCR", "public_transport": "station", "railway": "station", "ref": "ALPR", "train": "yes", "wheelchair": "limited", "wikidata": "Q63371317"}, "geometry": {"type": "Point", "coordinates": [78.0468145, 15.8955201]}, "id": "node/603465570"}, {"type": "Feature", "properties": {"@id": "node/604925197", "addr:city": "Alappuzha", "addr:place": "thuravoor", "internet_access": "no", "name": "Turavur", "name:ml": "\u0d24\u0d41\u0d31\u0d35\u0d42\u0d7c", "network": "IR", "operator": "SR", "public_transport": "station", "railway": "station", "ref": "TUVR", "wikidata": "Q20718163", "wikipedia": "en:Thuravoor railway station"}, "geometry": {"type": "Point", "coordinates": [76.3102752, 9.7749279]}, "id": "node/604925197"}, {"type": "Feature", "properties": {"@id": "node/604925313", "addr:city": "Cherthala", "addr:street": "Salem-Kochi-Kanyakumari Road", "alt_name": "Shertalai", "internet_access": "no", "name": "Cherthala", "name:ml": "\u0d1a\u0d47\u0d7c\u0d24\u0d4d\u0d24\u0d32", "name:ta": "\u0b9a\u0bc7\u0bb0\u0bcd\u0ba4\u0bcd\u0ba4\u0bb2\u0bc8", "network": "IR", "operator": "SR", "public_transport": "station", "railway": "station", "ref": "SRTL", "train": "yes", "wheelchair": "yes", "wikidata": "Q20717360", "wikipedia": "en:Cherthala railway station"}, "geometry": {"type": "Point", "coordinates": [76.3257168, 9.6912036]}, "id": "node/604925313"}, {"type": "Feature", "properties": {"@id": "node/606355995", "internet_access": "no", "name": "Jalgaon Junction", "network": "IR", "operator": "CR", "public_transport": "station", "railway": "station", "ref": "JL", "train": "yes", "wikidata": "Q15229224", "wikipedia": "en:Jalgaon Junction railway station"}, "geometry": {"type": "Point", "coordinates": [75.5632539, 21.0179798]}, "id": "node/606355995"}, {"type": "Feature", "properties": {"@id": "node/617332502", "internet_access": "no", "name": "Ramanagaram", "name:kn": "\u0cb0\u0cbe\u0cae\u0ca8\u0c97\u0cb0", "network": "IR", "operator": "SWR", "platforms": "2", "public_transport": "station", "railway": "station", "ref": "RMGM", "wikidata": "Q63358208"}, "geometry": {"type": "Point", "coordinates": [77.2837376, 12.7210476]}, "id": "node/617332502"}, {"type": "Feature", "properties": {"@id": "node/619119023", "alt_name": "Kalwa", "alt_name:en": "Kalwa", "ele": "6.65", "internet_access": "no", "name": "Kalva", "name:en": "Kalva", "name:hi": "\u0915\u0932\u0935\u093e", "name:mr": "\u0915\u0933\u0935\u093e", "network": "IR", "operator": "CR", "public_transport": "station", "railway": "station", "ref": "KLVA", "start_date": "1954-01-01", "train": "yes", "wikidata": "Q6354779", "wikipedia": "en:Kalwa railway station"}, "geometry": {"type": "Point", "coordinates": [72.9963331, 19.1952243]}, "id": "node/619119023"}, {"type": "Feature", "properties": {"@id": "node/619992025", "ele": "5.59", "internet_access": "no", "name": "Kanjur Marg", "name:en": "Kanjur Marg", "name:hi": "\u0915\u093e\u0902\u091c\u0941\u0930 \u092e\u093e\u0930\u094d\u0917", "name:ml": "\u0d15\u0d3e\u0d1e\u0d4d\u0d1c\u0d42\u0d7c\u0d2e\u0d3e\u0d7c\u0d17\u0d4d", "name:mr": "\u0915\u093e\u0902\u091c\u0941\u0930 \u092e\u093e\u0930\u094d\u0917", "network": "IR", "operator": "CR", "public_transport": "station", "railway": "station", "ref": "KJRD", "start_date": "1968-01-26", "train": "yes", "wheelchair": "limited", "wikidata": "Q6363526", "wikipedia": "en:Kanjur Marg railway station"}, "geometry": {"type": "Point", "coordinates": [72.9280394, 19.1286526]}, "id": "node/619992025"}, {"type": "Feature", "properties": {"@id": "node/620013256", "addr:city": "Mumbai", "addr:postcode": "400086", "addr:street": "Station Road", "alt_name": "Vidya Vihar", "alt_name:en": "Vidya Vihar", "alt_name:hi": "\u0935\u093f\u0926\u094d\u092f\u093e \u0935\u093f\u0939\u093e\u0930", "alt_name:mr": "\u0935\u093f\u0926\u094d\u092f\u093e \u0935\u093f\u0939\u093e\u0930", "ele": "5.35", "internet_access": "no", "name": "Vidyavihar", "name:en": "Vidyavihar", "name:hi": "\u0935\u093f\u0926\u094d\u092f\u093e\u0935\u093f\u0939\u093e\u0930", "name:mr": "\u0935\u093f\u0926\u094d\u092f\u093e\u0935\u093f\u0939\u093e\u0930", "network": "IR", "operator": "CR", "public_transport": "station", "railway": "station", "ref": "VVH", "start_date": "1961-08-16", "train": "yes", "wikidata": "Q7928232", "wikipedia": "en:Vidyavihar railway station"}, "geometry": {"type": "Point", "coordinates": [72.8971169, 19.0795422]}, "id": "node/620013256"},